status,distance_km,udise,block,project_school_name,stackschools_name,project_lat,project_lon,stackschools_lat,stackschools_lon,project_google_maps,stackschools_google_maps,stackschools_url,error
ok,0.000,20131300606,CHANDRAPURA,UPG P S JHARNABASTI,UPG P S JHARNABASTI,23.741785,86.112588,23.741785000399,86.1125880004405,"https://www.google.com/maps?q=23.741785,86.112588&z=17&hl=en","https://www.google.com/maps?q=23.741785000399,86.1125880004405&z=17&hl=en",https://stackschools.com/schools/20131300606/,
ok,0.000,20130601305,NAWADIH,SSA NPS GAMHARIYATAND,SSA NPS GAMHARIYATAND,23.925381,85.903756,23.9253810003806,85.9037559995543,"https://www.google.com/maps?q=23.925381,85.903756&z=17&hl=en","https://www.google.com/maps?q=23.9253810003806,85.9037559995543&z=17&hl=en",https://stackschools.com/schools/20130601305/,
ok,0.000,20131300501,CHANDRAPURA,UPG RAJKIYAKRIT M S CHIRUDIH,UPG RAJKIYAKRIT M S CHIRUDIH,23.767751,86.074888,23.7677509996162,86.0748879995683,"https://www.google.com/maps?q=23.767751,86.074888&z=17&hl=en","https://www.google.com/maps?q=23.7677509996162,86.0748879995683&z=17&hl=en",https://stackschools.com/schools/20131300501/,
ok,0.000,20131106401,PETARWAR,UPG RAJKIYAKRIT M S CHARGI,UPG RAJKIYAKRIT M S CHARGI,23.601576,85.822564,23.6015759996088,85.822564000421,"https://www.google.com/maps?q=23.601576,85.822564&z=17&hl=en","https://www.google.com/maps?q=23.6015759996088,85.822564000421&z=17&hl=en",https://stackschools.com/schools/20131106401/,
ok,0.000,20131201104,KASMAR,UPG P S BAJARTAND (MADHUKARPUR),UPG P S BAJARTAND (MADHUKARPUR),23.588163,85.905747,23.5881629995958,85.9057470003972,"https://www.google.com/maps?q=23.588163,85.905747&z=17&hl=en","https://www.google.com/maps?q=23.5881629995958,85.9057470003972&z=17&hl=en",https://stackschools.com/schools/20131201104/,
ok,0.000,20130106804,CHANDANKIYARI,UPG RAJKIYAKRIT M S BRAHMAN LAGHLA,UPG RAJKIYAKRIT M S BRAHMAN LAGHLA,23.622179,86.391766,23.6221790003612,86.3917660004344,"https://www.google.com/maps?q=23.622179,86.391766&z=17&hl=en","https://www.google.com/maps?q=23.6221790003612,86.3917660004344&z=17&hl=en",https://stackschools.com/schools/20130106804/,
ok,0.000,20131101401,PETARWAR,UPG RAJKIYAKRIT +2 HIGH SCHOOL RANGAMATI,UPG RAJKIYAKRIT +2 HIGH SCHOOL RANGAMATI,23.703077,85.807064,23.7030769996193,85.8070639995882,"https://www.google.com/maps?q=23.703077,85.807064&z=17&hl=en","https://www.google.com/maps?q=23.7030769996193,85.8070639995882&z=17&hl=en",https://stackschools.com/schools/20131101401/,
ok,0.000,20131303505,CHANDRAPURA,SSA NPS JAMUNIA TAND,SSA NPS JAMUNIA TAND,23.808381,86.146512,23.8083809996004,86.1465120003896,"https://www.google.com/maps?q=23.808381,86.146512&z=17&hl=en","https://www.google.com/maps?q=23.8083809996004,86.1465120003896&z=17&hl=en",https://stackschools.com/schools/20131303505/,
ok,0.000,20131303104,CHANDRAPURA,UPG P S BELIATAND,UPG P S BELIATAND,23.780212,86.112367,23.7802120003982,86.1123669996093,"https://www.google.com/maps?q=23.780212,86.112367&z=17&hl=en","https://www.google.com/maps?q=23.7802120003982,86.1123669996093&z=17&hl=en",https://stackschools.com/schools/20131303104/,
ok,0.000,20131302808,CHANDRAPURA,UPG P S FULSODIH,UPG P S FULSODIH,23.810311,86.127277,23.8103109996463,86.1272770004382,"https://www.google.com/maps?q=23.810311,86.127277&z=17&hl=en","https://www.google.com/maps?q=23.8103109996463,86.1272770004382&z=17&hl=en",https://stackschools.com/schools/20131302808/,
ok,0.000,20131104101,PETARWAR,RAJKIYAKRIT P S OBARA,RAJKIYAKRIT P S OBARA,23.644486,85.831548,23.6444860004084,85.8315480003735,"https://www.google.com/maps?q=23.644486,85.831548&z=17&hl=en","https://www.google.com/maps?q=23.6444860004084,85.8315480003735&z=17&hl=en",https://stackschools.com/schools/20131104101/,
ok,0.000,20131108301,PETARWAR,UPG RAJKIYAKRIT M S BUDHAN GODA,UPG RAJKIYAKRIT M S BUDHAN GODA,23.622725,85.801349,23.6227249996099,85.8013490003957,"https://www.google.com/maps?q=23.622725,85.801349&z=17&hl=en","https://www.google.com/maps?q=23.6227249996099,85.8013490003957&z=17&hl=en",https://stackschools.com/schools/20131108301/,
ok,0.000,20130602704,NAWADIH,UPG P S BAGJOBRA,UPG P S BAGJOBRA,23.830966,86.025239,23.8309659996606,86.0252389995539,"https://www.google.com/maps?q=23.830966,86.025239&z=17&hl=en","https://www.google.com/maps?q=23.8309659996606,86.0252389995539&z=17&hl=en",https://stackschools.com/schools/20130602704/,
ok,0.000,20130302202,CHAS,UPG RAJKIYAKRIT M S AMURAMU,UPG RAJKIYAKRIT M S AMURAMU,23.518611,86.152817,23.518611000365,86.152816999586,"https://www.google.com/maps?q=23.518611,86.152817&z=17&hl=en","https://www.google.com/maps?q=23.518611000365,86.152816999586&z=17&hl=en",https://stackschools.com/schools/20130302202/,
ok,0.000,20130601801,NAWADIH,UPG RAJKIYAKRIT M S KACHHO,UPG RAJKIYAKRIT M S KACHHO,23.834567,85.871243,23.8345669996308,85.8712429995917,"https://www.google.com/maps?q=23.834567,85.871243&z=17&hl=en","https://www.google.com/maps?q=23.8345669996308,85.8712429995917&z=17&hl=en",https://stackschools.com/schools/20130601801/,
ok,0.000,20130308101,CHAS,UPG RAJKIYAKRIT M S BENDI,UPG RAJKIYAKRIT M S BENDI,23.597,86.233153,23.5970000003983,86.2331530003732,"https://www.google.com/maps?q=23.597,86.233153&z=17&hl=en","https://www.google.com/maps?q=23.5970000003983,86.2331530003732&z=17&hl=en",https://stackschools.com/schools/20130308101/,
ok,0.000,20130605201,NAWADIH,UPG RAJKIYAKRIT +2 HIGH SCHOOL GUNJARDIH,UPG RAJKIYAKRIT HIGH SCHOOL GUNJARDIH,23.790116,86.060045,23.7901159996376,86.0600449995849,"https://www.google.com/maps?q=23.790116,86.060045&z=17&hl=en","https://www.google.com/maps?q=23.7901159996376,86.0600449995849&z=17&hl=en",https://stackschools.com/schools/20130605201/,
ok,0.000,20130606601,NAWADIH,UPG RAJKIYAKRIT HIGH SCHOOL POKHARIYA,UPG RAJKIYAKRIT HIGH SCHOOL POKHARIYA,23.906925,85.935607,23.906924999675,85.9356070004413,"https://www.google.com/maps?q=23.906925,85.935607&z=17&hl=en","https://www.google.com/maps?q=23.906924999675,85.9356070004413&z=17&hl=en",https://stackschools.com/schools/20130606601/,
ok,0.000,20131100502,PETARWAR,RAJKIYAKRIT P S BAGJOBRA,RAJKIYAKRIT P S BAGJOBRA,23.706623,85.828654,23.7066229996699,85.8286540004306,"https://www.google.com/maps?q=23.706623,85.828654&z=17&hl=en","https://www.google.com/maps?q=23.7066229996699,85.8286540004306&z=17&hl=en",https://stackschools.com/schools/20131100502/,
ok,0.000,20130600201,NAWADIH,RAJKIYAKRIT M S SAHARIYA,RAJKIYAKRIT M S SAHARIYA,23.883575,86.075329,23.883575000368,86.0753289996093,"https://www.google.com/maps?q=23.883575,86.075329&z=17&hl=en","https://www.google.com/maps?q=23.883575000368,86.0753289996093&z=17&hl=en",https://stackschools.com/schools/20130600201/,
ok,0.000,20131300702,CHANDRAPURA,UPG P S LALMATIA,UPG P S LALMATIA,23.761859,86.110208,23.761859000411,86.1102080003335,"https://www.google.com/maps?q=23.761859,86.110208&z=17&hl=en","https://www.google.com/maps?q=23.761859000411,86.1102080003335&z=17&hl=en",https://stackschools.com/schools/20131300702/,
ok,0.000,20131102306,PETARWAR,SSA NPS MOTHATAND,SSA NPS MOTHATAND,23.699773,85.818988,23.6997730003349,85.8189880004127,"https://www.google.com/maps?q=23.699773,85.818988&z=17&hl=en","https://www.google.com/maps?q=23.6997730003349,85.8189880004127&z=17&hl=en",https://stackschools.com/schools/20131102306/,
ok,0.000,20131300608,CHANDRAPURA,UPG P S BAGHMARITAND,UPG P S BAGHMARITAND,23.737661,86.176972,23.7376610003325,86.176971999585,"https://www.google.com/maps?q=23.737661,86.176972&z=17&hl=en","https://www.google.com/maps?q=23.7376610003325,86.176971999585&z=17&hl=en",https://stackschools.com/schools/20131300608/,
ok,0.000,20130602301,NAWADIH,RAJKIYAKRIT M S CHIRUDIH,RAJKIYAKRIT M S CHIRUDIH,23.846002,86.048922,23.846002000289,86.0489220004481,"https://www.google.com/maps?q=23.846002,86.048922&z=17&hl=en","https://www.google.com/maps?q=23.846002000289,86.0489220004481&z=17&hl=en",https://stackschools.com/schools/20130602301/,
ok,0.000,20131201703,KASMAR,UPG P S MASRIDIH,UPG P S MASRIDIH,23.522262,85.87936,23.5222619996892,85.8793600004291,"https://www.google.com/maps?q=23.522262,85.87936&z=17&hl=en","https://www.google.com/maps?q=23.5222619996892,85.8793600004291&z=17&hl=en",https://stackschools.com/schools/20131201703/,
ok,0.000,20130304801,CHAS,RAJKIYAKRIT M S KANDRA,RAJKIYAKRIT M S KANDRA,23.597279,86.189316,23.5972790003688,86.1893159996358,"https://www.google.com/maps?q=23.597279,86.189316&z=17&hl=en","https://www.google.com/maps?q=23.5972790003688,86.1893159996358&z=17&hl=en",https://stackschools.com/schools/20130304801/,
ok,0.000,20130605501,NAWADIH,UPG RAJKIYAKRIT M S PARSA BEDA,UPG RAJKIYAKRIT M S PARSA BEDA,23.866685,85.887471,23.8666850003579,85.8874709996223,"https://www.google.com/maps?q=23.866685,85.887471&z=17&hl=en","https://www.google.com/maps?q=23.8666850003579,85.8874709996223&z=17&hl=en",https://stackschools.com/schools/20130605501/,
ok,0.000,20130606008,NAWADIH,UPG P S BHANDARKUDAR,UPG P S BHANDARKUDAR,23.850047,85.985744,23.8500469996237,85.9857440003523,"https://www.google.com/maps?q=23.850047,85.985744&z=17&hl=en","https://www.google.com/maps?q=23.8500469996237,85.9857440003523&z=17&hl=en",https://stackschools.com/schools/20130606008/,
ok,0.000,20131302802,CHANDRAPURA,PM SHRI RAJKIYAKRIT M S TELO,RAJKIYAKRIT M S TELO,23.816879,86.120155,23.8168789996158,86.1201549996605,"https://www.google.com/maps?q=23.816879,86.120155&z=17&hl=en","https://www.google.com/maps?q=23.8168789996158,86.1201549996605&z=17&hl=en",https://stackschools.com/schools/20131302802/,
ok,0.000,20131101701,PETARWAR,UPG RAJKIYAKRIT M S BASARIYA,UPG RAJKIYAKRIT M S BASARIYA,23.723833,85.929358,23.7238330003055,85.929358000423,"https://www.google.com/maps?q=23.723833,85.929358&z=17&hl=en","https://www.google.com/maps?q=23.7238330003055,85.929358000423&z=17&hl=en",https://stackschools.com/schools/20131101701/,
ok,0.000,20130606210,NAWADIH,UPG M S PARSABERA,UPG M S PARSABERA,23.844096,85.957756,23.844095999701,85.9577560004271,"https://www.google.com/maps?q=23.844096,85.957756&z=17&hl=en","https://www.google.com/maps?q=23.844095999701,85.9577560004271&z=17&hl=en",https://stackschools.com/schools/20130606210/,
ok,0.000,20130311201,CHAS,UPG RAJKIYAKRIT M S DUDHIGAJAR,UPG RAJKIYAKRIT M S DUDHIGAJAR,23.584608,86.254466,23.5846079996003,86.2544660003079,"https://www.google.com/maps?q=23.584608,86.254466&z=17&hl=en","https://www.google.com/maps?q=23.5846079996003,86.2544660003079&z=17&hl=en",https://stackschools.com/schools/20130311201/,
ok,0.000,20131102402,PETARWAR,UPG P S BADKITAND,UPG P S BADKITAND,23.71576,85.95298,23.7157599996096,85.9529800003195,"https://www.google.com/maps?q=23.71576,85.95298&z=17&hl=en","https://www.google.com/maps?q=23.7157599996096,85.9529800003195&z=17&hl=en",https://stackschools.com/schools/20131102402/,
ok,0.000,20130102101,CHANDANKIYARI,RAJKIYAKRIT M S BHOJUDIH,RAJKIYAKRIT M S BHOJUDIH,23.64172,86.433088,23.6417200002637,86.4330880004473,"https://www.google.com/maps?q=23.64172,86.433088&z=17&hl=en","https://www.google.com/maps?q=23.6417200002637,86.4330880004473&z=17&hl=en",https://stackschools.com/schools/20130102101/,
ok,0.000,20131204801,KASMAR,RAJKIYAKRIT P S BHAWANIPUR (D-2018),RAJKIYAKRIT P S BHAWANIPUR (D-2018),23.547805,85.900318,23.5478050003553,85.9003179996382,"https://www.google.com/maps?q=23.547805,85.900318&z=17&hl=en","https://www.google.com/maps?q=23.5478050003553,85.9003179996382&z=17&hl=en",https://stackschools.com/schools/20131204801/,
ok,0.000,20130606203,NAWADIH,UPG P S BADKADIH,UPG P S BADKADIH,23.841808,85.942102,23.8418080003279,85.9421019996085,"https://www.google.com/maps?q=23.841808,85.942102&z=17&hl=en","https://www.google.com/maps?q=23.8418080003279,85.9421019996085&z=17&hl=en",https://stackschools.com/schools/20130606203/,
ok,0.000,20131102802,PETARWAR,RAJKIYAKRIT P S KHAIRAJARA,RAJKIYAKRIT P S KHAIRAJARA,23.658549,85.816032,23.6585490003599,85.8160319996472,"https://www.google.com/maps?q=23.658549,85.816032&z=17&hl=en","https://www.google.com/maps?q=23.6585490003599,85.8160319996472&z=17&hl=en",https://stackschools.com/schools/20131102802/,
ok,0.000,20130604301,NAWADIH,RAJKIYAKRIT P S KIMOJORIYA,RAJKIYAKRIT P S KIMOJORIYA,23.839574,86.065884,23.8395740002906,86.0658840004226,"https://www.google.com/maps?q=23.839574,86.065884&z=17&hl=en","https://www.google.com/maps?q=23.8395740002906,86.0658840004226&z=17&hl=en",https://stackschools.com/schools/20130604301/,
ok,0.000,20130603401,NAWADIH,UPG RAJKIYAKRIT M S POTSO,UPG RAJKIYAKRIT M S POTSO,23.898582,86.024295,23.8985820002535,86.024295000446,"https://www.google.com/maps?q=23.898582,86.024295&z=17&hl=en","https://www.google.com/maps?q=23.8985820002535,86.024295000446&z=17&hl=en",https://stackschools.com/schools/20130603401/,
ok,0.000,20130314101,CHAS,RAJKIYAKRIT M S PUNDRU,RAJKIYAKRIT M S PUNDRU,23.540872,86.282611,23.5408719996133,86.2826109996936,"https://www.google.com/maps?q=23.540872,86.282611&z=17&hl=en","https://www.google.com/maps?q=23.5408719996133,86.2826109996936&z=17&hl=en",https://stackschools.com/schools/20130314101/,
ok,0.000,20130109601,CHANDANKIYARI,UPG RAJKIYAKRIT M S DAMUDIH,UPG RAJKIYAKRIT M S DAMUDIH,23.519633,86.274003,23.5196329996871,86.2740030003831,"https://www.google.com/maps?q=23.519633,86.274003&z=17&hl=en","https://www.google.com/maps?q=23.5196329996871,86.2740030003831&z=17&hl=en",https://stackschools.com/schools/20130109601/,
ok,0.000,20130601902,NAWADIH,SSA NPS ADIWASITOLA,SSA NPS ADIWASITOLA,23.814053,85.924837,23.8140530003715,85.9248369996853,"https://www.google.com/maps?q=23.814053,85.924837&z=17&hl=en","https://www.google.com/maps?q=23.8140530003715,85.9248369996853&z=17&hl=en",https://stackschools.com/schools/20130601902/,
ok,0.000,20130103001,CHANDANKIYARI,RAJKIYAKRIT M S TALGARIYA,RAJKIYAKRIT M S TALGARIYA,23.700757,86.350917,23.7007569995904,86.3509170002495,"https://www.google.com/maps?q=23.700757,86.350917&z=17&hl=en","https://www.google.com/maps?q=23.7007569995904,86.3509170002495&z=17&hl=en",https://stackschools.com/schools/20130103001/,
ok,0.000,20131105801,PETARWAR,RAJKIYAKRIT P S NAWA DIH,RAJKIYAKRIT P S NAWA DIH,23.688338,85.996918,23.6883380002369,85.996918000441,"https://www.google.com/maps?q=23.688338,85.996918&z=17&hl=en","https://www.google.com/maps?q=23.6883380002369,85.996918000441&z=17&hl=en",https://stackschools.com/schools/20131105801/,
ok,0.000,20131302805,CHANDRAPURA,UPG P S DANDUDIH,UPG P S DANDUDIH,23.82308,86.133341,23.8230800002988,86.1333409996102,"https://www.google.com/maps?q=23.82308,86.133341&z=17&hl=en","https://www.google.com/maps?q=23.8230800002988,86.1333409996102&z=17&hl=en",https://stackschools.com/schools/20131302805/,
ok,0.000,20131205902,KASMAR,UPG P S KUMARIBAGICHA KURKO,UPG P S KUMARIBAGICHA KURKO,23.576376,85.908096,23.5763759996699,85.9080959996437,"https://www.google.com/maps?q=23.576376,85.908096&z=17&hl=en","https://www.google.com/maps?q=23.5763759996699,85.9080959996437&z=17&hl=en",https://stackschools.com/schools/20131205902/,
ok,0.000,20131206301,KASMAR,RAJKIYAKRIT P S KARKATTA KHURD,RAJKIYAKRIT P S KARKATTA KHURD,23.598136,85.876159,23.5981360003435,85.8761590003396,"https://www.google.com/maps?q=23.598136,85.876159&z=17&hl=en","https://www.google.com/maps?q=23.5981360003435,85.8761590003396&z=17&hl=en",https://stackschools.com/schools/20131206301/,
ok,0.000,20130609907,NAWADIH,UPG P S CHOTAHI,UPG P S CHOTAHI,23.812077,86.050779,23.812076999717,86.0507789996001,"https://www.google.com/maps?q=23.812077,86.050779&z=17&hl=en","https://www.google.com/maps?q=23.812076999717,86.0507789996001&z=17&hl=en",https://stackschools.com/schools/20130609907/,
ok,0.000,20131104801,PETARWAR,RAJKIYAKRIT P S KOJRAM,RAJKIYAKRIT P S KOJRAM,23.630266,85.888825,23.6302660003763,85.8888249997073,"https://www.google.com/maps?q=23.630266,85.888825&z=17&hl=en","https://www.google.com/maps?q=23.6302660003763,85.8888249997073&z=17&hl=en",https://stackschools.com/schools/20131104801/,
ok,0.000,20131102501,PETARWAR,RAJKIYAKRIT P S KHURD CHANDO,RAJKIYAKRIT P S KHURD CHANDO,23.679371,85.928455,23.6793710002489,85.9284550004247,"https://www.google.com/maps?q=23.679371,85.928455&z=17&hl=en","https://www.google.com/maps?q=23.6793710002489,85.9284550004247&z=17&hl=en",https://stackschools.com/schools/20131102501/,
ok,0.000,20130703203,JARIDIH,SSA NPS PURNAPANI,SSA NPS PURNAPANI,23.493184,86.009402,23.4931840004075,86.0094020002339,"https://www.google.com/maps?q=23.493184,86.009402&z=17&hl=en","https://www.google.com/maps?q=23.4931840004075,86.0094020002339&z=17&hl=en",https://stackschools.com/schools/20130703203/,
ok,0.000,20130605802,NAWADIH,SSA NPS GHATWARTOLA,SSA NPS GHATWARTOLA,23.876761,85.945083,23.876760999733,85.9450829995901,"https://www.google.com/maps?q=23.876761,85.945083&z=17&hl=en","https://www.google.com/maps?q=23.876760999733,85.9450829995901&z=17&hl=en",https://stackschools.com/schools/20130605802/,
ok,0.000,20130605302,NAWADIH,RAJKIYAKRIT P S BARWADIH-1,RAJKIYAKRIT P S BARWADIH-1,23.859171,86.037957,23.8591710003672,86.0379569996985,"https://www.google.com/maps?q=23.859171,86.037957&z=17&hl=en","https://www.google.com/maps?q=23.8591710003672,86.0379569996985&z=17&hl=en",https://stackschools.com/schools/20130605302/,
ok,0.000,20131300701,CHANDRAPURA,UPG RAJKIYAKRIT +2 HIGH SCHOOL GHATIYARI,UPG RAJKIYAKRIT HIGH SCHOOL GHATIYARI,23.761922,86.109941,23.7619220003099,86.1099410003698,"https://www.google.com/maps?q=23.761922,86.109941&z=17&hl=en","https://www.google.com/maps?q=23.7619220003099,86.1099410003698&z=17&hl=en",https://stackschools.com/schools/20131300701/,
ok,0.000,20130606401,NAWADIH,UPG RAJKIYAKRIT +2 HIGH SCHOOL PENK,UPG RAJKIYAKRIT HIGH SCHOOL PENK,23.902262,85.891775,23.9022619996161,85.8917749997267,"https://www.google.com/maps?q=23.902262,85.891775&z=17&hl=en","https://www.google.com/maps?q=23.9022619996161,85.8917749997267&z=17&hl=en",https://stackschools.com/schools/20130606401/,
ok,0.000,20131207301,KASMAR,UPG P S MANIPUR,UPG P S MANIPUR,23.518853,85.930271,23.5188530002298,85.9302709995688,"https://www.google.com/maps?q=23.518853,85.930271&z=17&hl=en","https://www.google.com/maps?q=23.5188530002298,85.9302709995688&z=17&hl=en",https://stackschools.com/schools/20131207301/,
ok,0.000,20130604701,NAWADIH,RAJKIYAKRIT M S NARAYAN PUR,RAJKIYAKRIT M S NARAYAN PUR,23.860618,85.929086,23.8606180002231,85.9290860004365,"https://www.google.com/maps?q=23.860618,85.929086&z=17&hl=en","https://www.google.com/maps?q=23.8606180002231,85.9290860004365&z=17&hl=en",https://stackschools.com/schools/20130604701/,
ok,0.000,20130606208,NAWADIH,SSA NPS TURITOLA (PALAMU),SSA NPS TURITOLA (PALAMU),23.836606,85.955894,23.8366060003226,85.955894000354,"https://www.google.com/maps?q=23.836606,85.955894&z=17&hl=en","https://www.google.com/maps?q=23.8366060003226,85.955894000354&z=17&hl=en",https://stackschools.com/schools/20130606208/,
ok,0.000,20130605303,NAWADIH,RAJKIYAKRIT M S NAWADIH,RAJKIYAKRIT M S NAWADIH,23.854054,86.040842,23.8540540003499,86.0408420003188,"https://www.google.com/maps?q=23.854054,86.040842&z=17&hl=en","https://www.google.com/maps?q=23.8540540003499,86.0408420003188&z=17&hl=en",https://stackschools.com/schools/20130605303/,
ok,0.000,20131302403,CHANDRAPURA,UPG P S HATHIYA PATTHAR,UPG P S HATHIYA PATTHAR,23.819127,86.081475,23.8191270003599,86.0814749996954,"https://www.google.com/maps?q=23.819127,86.081475&z=17&hl=en","https://www.google.com/maps?q=23.8191270003599,86.0814749996954&z=17&hl=en",https://stackschools.com/schools/20131302403/,
ok,0.000,20130317401,CHAS,UPG RAJKIYAKRIT M S BANSIMLI,UPG RAJKIYAKRIT M S BANSIMLI,23.628926,86.083893,23.6289260003356,86.0838930003356,"https://www.google.com/maps?q=23.628926,86.083893&z=17&hl=en","https://www.google.com/maps?q=23.6289260003356,86.0838930003356&z=17&hl=en",https://stackschools.com/schools/20130317401/,
ok,0.000,20130608801,NAWADIH,UPG P S BARWADIH,UPG P S BARWADIH,23.883225,86.030666,23.8832250004008,86.0306659997647,"https://www.google.com/maps?q=23.883225,86.030666&z=17&hl=en","https://www.google.com/maps?q=23.8832250004008,86.0306659997647&z=17&hl=en",https://stackschools.com/schools/20130608801/,
ok,0.000,20131203103,KASMAR,UPG P S MAHUWATOLA,UPG P S MAHUWATOLA,23.595877,85.883249,23.5958769997791,85.8832490004319,"https://www.google.com/maps?q=23.595877,85.883249&z=17&hl=en","https://www.google.com/maps?q=23.5958769997791,85.8832490004319&z=17&hl=en",https://stackschools.com/schools/20131203103/,
ok,0.000,20130702107,JARIDIH,RAJKIYAKRIT P S BIRSARAM,RAJKIYAKRIT P S BIRSARAM,23.604602,86.002917,23.6046019995939,86.0029170002141,"https://www.google.com/maps?q=23.604602,86.002917&z=17&hl=en","https://www.google.com/maps?q=23.6046019995939,86.0029170002141&z=17&hl=en",https://stackschools.com/schools/20130702107/,
ok,0.000,20131100901,PETARWAR,RAJKIYAKRIT P S CHHAPPARDIH,RAJKIYAKRIT P S CHHAPPARDIH,23.743968,85.99697,23.7439679996588,85.9969700003196,"https://www.google.com/maps?q=23.743968,85.99697&z=17&hl=en","https://www.google.com/maps?q=23.7439679996588,85.9969700003196&z=17&hl=en",https://stackschools.com/schools/20131100901/,
ok,0.000,20131105201,PETARWAR,RAJKIYAKRIT P S JEBRA,RAJKIYAKRIT P S JEBRA,23.659868,85.843199,23.6598680002467,85.8431989995899,"https://www.google.com/maps?q=23.659868,85.843199&z=17&hl=en","https://www.google.com/maps?q=23.6598680002467,85.8431989995899&z=17&hl=en",https://stackschools.com/schools/20131105201/,
ok,0.000,20131105402,PETARWAR,UPG M S MERU DARU KHAS,UPG M S MERU DARU KHAS,23.67021,85.783439,23.6702100004024,85.783439000217,"https://www.google.com/maps?q=23.67021,85.783439&z=17&hl=en","https://www.google.com/maps?q=23.6702100004024,85.783439000217&z=17&hl=en",https://stackschools.com/schools/20131105402/,
ok,0.000,20130602102,NAWADIH,UPG P S BOKHARWATAND,UPG P S BOKHARWATAND,23.870795,86.022321,23.870795000401,86.0223210002199,"https://www.google.com/maps?q=23.870795,86.022321&z=17&hl=en","https://www.google.com/maps?q=23.870795000401,86.0223210002199&z=17&hl=en",https://stackschools.com/schools/20130602102/,
ok,0.000,20130605601,NAWADIH,RAJKIYAKRIT GOVT. SECONDARY SCHOOL KANJKIRO,RAJKIYAKRIT M S KANJKIRO,23.828736,85.884669,23.8287359996209,85.8846689997409,"https://www.google.com/maps?q=23.828736,85.884669&z=17&hl=en","https://www.google.com/maps?q=23.8287359996209,85.8846689997409&z=17&hl=en",https://stackschools.com/schools/20130605601/,
ok,0.000,20130101606,CHANDANKIYARI,UPG RAJKIYAKRIT M S CHANDANKIYARI BAZAR,UPG RAJKIYAKRIT M S CHANDANKIYARI BAZAR,23.576374,86.360351,23.5763739997992,86.3603509995655,"https://www.google.com/maps?q=23.576374,86.360351&z=17&hl=en","https://www.google.com/maps?q=23.5763739997992,86.3603509995655&z=17&hl=en",https://stackschools.com/schools/20130101606/,
ok,0.000,20131104301,PETARWAR,UPG RAJKIYAKRIT M S OSAM,UPG RAJKIYAKRIT M S OSAM,23.673677,85.878379,23.6736770003572,85.8783789997147,"https://www.google.com/maps?q=23.673677,85.878379&z=17&hl=en","https://www.google.com/maps?q=23.6736770003572,85.8783789997147&z=17&hl=en",https://stackschools.com/schools/20131104301/,
ok,0.000,20130605307,NAWADIH,KGBV NAWADIH,KGBV NAWADIH,23.857551,86.038645,23.8575509997362,86.0386449996116,"https://www.google.com/maps?q=23.857551,86.038645&z=17&hl=en","https://www.google.com/maps?q=23.8575509997362,86.0386449996116&z=17&hl=en",https://stackschools.com/schools/20130605307/,
ok,0.000,20131203901,KASMAR,RAJKIYAKRIT P S PADI (D-2018),RAJKIYAKRIT P S PADI (D-2018),23.492621,85.920101,23.4926210003819,85.9201009997607,"https://www.google.com/maps?q=23.492621,85.920101&z=17&hl=en","https://www.google.com/maps?q=23.4926210003819,85.9201009997607&z=17&hl=en",https://stackschools.com/schools/20131203901/,
ok,0.000,20131303503,CHANDRAPURA,UPG P S CHIRUBAD,UPG P S CHIRUBAD,23.794159,86.152757,23.7941590003963,86.1527570002099,"https://www.google.com/maps?q=23.794159,86.152757&z=17&hl=en","https://www.google.com/maps?q=23.7941590003963,86.1527570002099&z=17&hl=en",https://stackschools.com/schools/20131303503/,
ok,0.000,20131201302,KASMAR,UPG P S BENGAHARA,UPG P S BENGAHARA,23.586449,85.886375,23.5864490004085,85.8863750001784,"https://www.google.com/maps?q=23.586449,85.886375&z=17&hl=en","https://www.google.com/maps?q=23.5864490004085,85.8863750001784&z=17&hl=en",https://stackschools.com/schools/20131201302/,
ok,0.000,20131300409,CHANDRAPURA,UPG PS JHINJHIRGUTU,UPG PS JHINJHIRGUTU,23.747136,86.094778,23.7471359995938,86.094777999821,"https://www.google.com/maps?q=23.747136,86.094778&z=17&hl=en","https://www.google.com/maps?q=23.7471359995938,86.094777999821&z=17&hl=en",https://stackschools.com/schools/20131300409/,
ok,0.000,20131207601,KASMAR,UPG P S MEDHA,UPG P S MEDHA,23.552525,85.887867,23.5525250002918,85.8878670003557,"https://www.google.com/maps?q=23.552525,85.887867&z=17&hl=en","https://www.google.com/maps?q=23.5525250002918,85.8878670003557&z=17&hl=en",https://stackschools.com/schools/20131207601/,
ok,0.000,20131103302,PETARWAR,RAJKIYAKRIT M S KHETKO,RAJKIYAKRIT M S KHETKO,23.749823,85.911884,23.7498229996356,85.9118840002624,"https://www.google.com/maps?q=23.749823,85.911884&z=17&hl=en","https://www.google.com/maps?q=23.7498229996356,85.9118840002624&z=17&hl=en",https://stackschools.com/schools/20131103302/,
ok,0.000,20131102301,PETARWAR,PM SHRI UPG RAJKIYAKRIT HIGH SCHOOL PATKI,UPG RAJKIYAKRIT HIGH SCHOOL PATKI,23.694559,85.826869,23.6945589997063,85.8268690003504,"https://www.google.com/maps?q=23.694559,85.826869&z=17&hl=en","https://www.google.com/maps?q=23.6945589997063,85.8268690003504&z=17&hl=en",https://stackschools.com/schools/20131102301/,
ok,0.000,20130606404,NAWADIH,UPG M S KADRUKHUTA,UPG M S KADRUKHUTA,23.922216,85.881448,23.9222159998366,85.8814479995598,"https://www.google.com/maps?q=23.922216,85.881448&z=17&hl=en","https://www.google.com/maps?q=23.9222159998366,85.8814479995598&z=17&hl=en",https://stackschools.com/schools/20130606404/,
ok,0.000,20130605801,NAWADIH,UPG RAJKIYAKRIT M S LAHIA,UPG RAJKIYAKRIT M S LAHIA,23.865958,85.94141,23.8659579997637,85.9414100003957,"https://www.google.com/maps?q=23.865958,85.94141&z=17&hl=en","https://www.google.com/maps?q=23.8659579997637,85.9414100003957&z=17&hl=en",https://stackschools.com/schools/20130605801/,
ok,0.000,20131103201,PETARWAR,RAJKIYAKRIT M S TENUGHAT,RAJKIYAKRIT M S TENUGHAT,23.725683,85.84146,23.7256830001589,85.8414600004387,"https://www.google.com/maps?q=23.725683,85.84146&z=17&hl=en","https://www.google.com/maps?q=23.7256830001589,85.8414600004387&z=17&hl=en",https://stackschools.com/schools/20131103201/,
ok,0.000,20131302001,CHANDRAPURA,RAJKIYAKRIT M S RATARI,RAJKIYAKRIT M S RATARI,23.756231,86.142479,23.756231000137,86.1424790004468,"https://www.google.com/maps?q=23.756231,86.142479&z=17&hl=en","https://www.google.com/maps?q=23.756231000137,86.1424790004468&z=17&hl=en",https://stackschools.com/schools/20131302001/,
ok,0.000,20130606201,NAWADIH,UPG RAJKIYAKRIT +2 HIGH SCHOOL PALAMU,UPG RAJKIYAKRIT HIGH SCHOOL PALAMU,23.833507,85.959853,23.83350700038,85.9598529997786,"https://www.google.com/maps?q=23.833507,85.959853&z=17&hl=en","https://www.google.com/maps?q=23.83350700038,85.9598529997786&z=17&hl=en",https://stackschools.com/schools/20130606201/,
ok,0.000,20130313801,CHAS,UPG RAJKIYAKRIT M S BARPOKHAR,UPG RAJKIYAKRIT M S BARPOKHAR,23.574067,86.226175,23.5740669998366,86.2261750004339,"https://www.google.com/maps?q=23.574067,86.226175&z=17&hl=en","https://www.google.com/maps?q=23.5740669998366,86.2261750004339&z=17&hl=en",https://stackschools.com/schools/20130313801/,
ok,0.000,20131202402,KASMAR,UPG P S PIRWATAND,UPG P S PIRWATAND,23.661747,85.945232,23.6617470001273,85.945231999553,"https://www.google.com/maps?q=23.661747,85.945232&z=17&hl=en","https://www.google.com/maps?q=23.6617470001273,85.945231999553&z=17&hl=en",https://stackschools.com/schools/20131202402/,
ok,0.000,20131303402,CHANDRAPURA,UPG P S BEHRATAND,UPG P S BEHRATAND,23.796885,86.1345,23.7968850003292,86.1344999997015,"https://www.google.com/maps?q=23.796885,86.1345&z=17&hl=en","https://www.google.com/maps?q=23.7968850003292,86.1344999997015&z=17&hl=en",https://stackschools.com/schools/20131303402/,
ok,0.000,20130600302,NAWADIH,SSA NPS MANJHITOLA,SSA NPS MANJHITOLA,23.829468,85.932523,23.8294679997399,85.9325229996293,"https://www.google.com/maps?q=23.829468,85.932523&z=17&hl=en","https://www.google.com/maps?q=23.8294679997399,85.9325229996293&z=17&hl=en",https://stackschools.com/schools/20130600302/,
ok,0.000,20130608201,NAWADIH,RAJKIYAKRIT P S MANPUR,RAJKIYAKRIT P S MANPUR,23.813513,86.080095,23.8135129996971,86.0800949996711,"https://www.google.com/maps?q=23.813513,86.080095&z=17&hl=en","https://www.google.com/maps?q=23.8135129996971,86.0800949996711&z=17&hl=en",https://stackschools.com/schools/20130608201/,
ok,0.000,20131106501,PETARWAR,UPG RAJKIYAKRIT +2 HIGH SCHOOL ORDANA,UPG RAJKIYAKRIT +2 HIGH SCHOOL ORDANA,23.653753,85.836226,23.6537530003031,85.8362259996735,"https://www.google.com/maps?q=23.653753,85.836226&z=17&hl=en","https://www.google.com/maps?q=23.6537530003031,85.8362259996735&z=17&hl=en",https://stackschools.com/schools/20131106501/,
ok,0.000,20130313601,CHAS,UPG RAJKIYAKRIT MS BABUDIH (URDU),UPG RAJKIYAKRIT MS BABUDIH (URDU),23.576028,86.290738,23.576028000307,86.2907379996786,"https://www.google.com/maps?q=23.576028,86.290738&z=17&hl=en","https://www.google.com/maps?q=23.576028000307,86.2907379996786&z=17&hl=en",https://stackschools.com/schools/20130313601/,
ok,0.000,20131100202,PETARWAR,RAJKIYAKRIT P S ANGWALI (MAKTAB),RAJKIYAKRIT P S ANGWALI (MAKTAB),23.724628,85.983839,23.7246279996584,85.9838389997232,"https://www.google.com/maps?q=23.724628,85.983839&z=17&hl=en","https://www.google.com/maps?q=23.7246279996584,85.9838389997232&z=17&hl=en",https://stackschools.com/schools/20131100202/,
ok,0.000,20131203802,KASMAR,UPG P S GATIGARA,UPG P S GATIGARA,23.503829,85.922431,23.503828999733,85.922430999639,"https://www.google.com/maps?q=23.503829,85.922431&z=17&hl=en","https://www.google.com/maps?q=23.503828999733,85.922430999639&z=17&hl=en",https://stackschools.com/schools/20131203802/,
ok,0.000,20131200904,KASMAR,UPG P S JOLHAKANARI,UPG P S JOLHAKANARI,23.551012,85.956788,23.5510119995922,85.9567880001314,"https://www.google.com/maps?q=23.551012,85.956788&z=17&hl=en","https://www.google.com/maps?q=23.5510119995922,85.9567880001314&z=17&hl=en",https://stackschools.com/schools/20131200904/,
ok,0.000,20131300419,CHANDRAPURA,JHARKHAND BALIKA AWASIYA VIDYALAYA CHANDRAPURA,JHARKHAND BALIKA AWASIYA VIDYALAYA CHANDRAPURA,23.745183,85.832451,23.7451830002544,85.8324510003718,"https://www.google.com/maps?q=23.745183,85.832451&z=17&hl=en","https://www.google.com/maps?q=23.7451830002544,85.8324510003718&z=17&hl=en",https://stackschools.com/schools/20131300419/,
ok,0.000,20131205605,KASMAR,UPG P S AWRATAND,UPG P S AWRATAND,23.643839,85.905146,23.6438390002486,85.9051459996243,"https://www.google.com/maps?q=23.643839,85.905146&z=17&hl=en","https://www.google.com/maps?q=23.6438390002486,85.9051459996243&z=17&hl=en",https://stackschools.com/schools/20131205605/,
ok,0.000,20131101601,PETARWAR,UPG RAJKIYAKRIT M S KANIDIH,UPG RAJKIYAKRIT M S KANIDIH,23.733246,85.928751,23.7332460003835,85.9287509998024,"https://www.google.com/maps?q=23.733246,85.928751&z=17&hl=en","https://www.google.com/maps?q=23.7332460003835,85.9287509998024&z=17&hl=en",https://stackschools.com/schools/20131101601/,
ok,0.000,20131301404,CHANDRAPURA,UPG P S MADANPUR,UPG P S MADANPUR,23.766189,86.148918,23.7661889998569,86.1489180004359,"https://www.google.com/maps?q=23.766189,86.148918&z=17&hl=en","https://www.google.com/maps?q=23.7661889998569,86.1489180004359&z=17&hl=en",https://stackschools.com/schools/20131301404/,
ok,0.000,20131100201,PETARWAR,UPG RAJKIYAKRIT M S ANGWALI KANYA,UPG RAJKIYAKRIT M S ANGWALI KANYA,23.733437,85.988202,23.7334370003394,85.9882020002772,"https://www.google.com/maps?q=23.733437,85.988202&z=17&hl=en","https://www.google.com/maps?q=23.7334370003394,85.9882020002772&z=17&hl=en",https://stackschools.com/schools/20131100201/,
ok,0.000,20130105703,CHANDANKIYARI,UPG RAJKIYAKRIT M S AMLABAD,UPG RAJKIYAKRIT M S AMLABAD,23.684927,86.375026,23.6849270003739,86.3750260002177,"https://www.google.com/maps?q=23.684927,86.375026&z=17&hl=en","https://www.google.com/maps?q=23.6849270003739,86.3750260002177&z=17&hl=en",https://stackschools.com/schools/20130105703/,
ok,0.000,20131201511,KASMAR,UPG P S JORIYAPAR WEST PART DANTOO,UPG P S JORIYAPAR WEST PART DANTOO,23.652022,85.905315,23.6520219996954,85.9053149996787,"https://www.google.com/maps?q=23.652022,85.905315&z=17&hl=en","https://www.google.com/maps?q=23.6520219996954,85.9053149996787&z=17&hl=en",https://stackschools.com/schools/20131201511/,
ok,0.000,20131301303,CHANDRAPURA,UPG P S PARSADIH,UPG P S PARSADIH,23.766933,86.162066,23.7669329995988,86.1620659998524,"https://www.google.com/maps?q=23.766933,86.162066&z=17&hl=en","https://www.google.com/maps?q=23.7669329995988,86.1620659998524&z=17&hl=en",https://stackschools.com/schools/20131301303/,
ok,0.000,20130326501,CHAS,PM SHRI UPG RAJKIYAKRIT M S BHARRA URDU,UPG RAJKIYAKRIT M S BHARRA (URDU),23.651944,86.163803,23.6519440003509,86.1638030002521,"https://www.google.com/maps?q=23.651944,86.163803&z=17&hl=en","https://www.google.com/maps?q=23.6519440003509,86.1638030002521&z=17&hl=en",https://stackschools.com/schools/20130326501/,
ok,0.000,20131104501,PETARWAR,RAJKIYAKRIT P S KARMACHOKI,RAJKIYAKRIT P S KARMACHOKI,23.685357,85.831589,23.6853569997679,85.8315890003814,"https://www.google.com/maps?q=23.685357,85.831589&z=17&hl=en","https://www.google.com/maps?q=23.6853569997679,85.8315890003814&z=17&hl=en",https://stackschools.com/schools/20131104501/,
ok,0.000,20130101801,CHANDANKIYARI,RAJKIYAKRIT M S ALUARA,RAJKIYAKRIT M S ALUARA,23.697267,86.309862,23.6972670003742,86.3098620002002,"https://www.google.com/maps?q=23.697267,86.309862&z=17&hl=en","https://www.google.com/maps?q=23.6972670003742,86.3098620002002&z=17&hl=en",https://stackschools.com/schools/20130101801/,
ok,0.000,20130605702,NAWADIH,UPG P S CHITAHIA,UPG P S CHITAHIA,23.85627,85.883331,23.8562700000771,85.8833310004477,"https://www.google.com/maps?q=23.85627,85.883331&z=17&hl=en","https://www.google.com/maps?q=23.8562700000771,85.8833310004477&z=17&hl=en",https://stackschools.com/schools/20130605702/,
ok,0.000,20131302101,CHANDRAPURA,RAJKIYAKRIT M S SIJUA,RAJKIYAKRIT M S SIJUA,23.760762,86.166104,23.7607619996192,86.1661039998181,"https://www.google.com/maps?q=23.760762,86.166104&z=17&hl=en","https://www.google.com/maps?q=23.7607619996192,86.1661039998181&z=17&hl=en",https://stackschools.com/schools/20131302101/,
ok,0.000,20131300611,CHANDRAPURA,RAJKIYAKRIT P S PARSATAND (D-2018),RAJKIYAKRIT P S PARSATAND (D-2018),23.760792,86.166111,23.7607919997886,86.1661110003891,"https://www.google.com/maps?q=23.760792,86.166111&z=17&hl=en","https://www.google.com/maps?q=23.7607919997886,86.1661110003891&z=17&hl=en",https://stackschools.com/schools/20131300611/,
ok,0.000,20130603602,NAWADIH,UPG P S BELIATAND (ADIWASITOLA),UPG P S BELIATAND (ADIWASITOLA),23.84021,86.116139,23.8402099997209,86.1161390003345,"https://www.google.com/maps?q=23.84021,86.116139&z=17&hl=en","https://www.google.com/maps?q=23.8402099997209,86.1161390003345&z=17&hl=en",https://stackschools.com/schools/20130603602/,
ok,0.000,20130607702,NAWADIH,UPG P S BADAHI (ARGAMO),UPG P S BADAHI (ARGAMO),23.871393,86.008421,23.8713929998406,86.0084210004178,"https://www.google.com/maps?q=23.871393,86.008421&z=17&hl=en","https://www.google.com/maps?q=23.8713929998406,86.0084210004178&z=17&hl=en",https://stackschools.com/schools/20130607702/,
ok,0.000,20130100301,CHANDANKIYARI,RAJKIYAKRIT M S KUMIRDOBA,RAJKIYAKRIT M S KUMIRDOBA,23.566899,86.324093,23.5668990000981,86.3240930004385,"https://www.google.com/maps?q=23.566899,86.324093&z=17&hl=en","https://www.google.com/maps?q=23.5668990000981,86.3240930004385&z=17&hl=en",https://stackschools.com/schools/20130100301/,
ok,0.000,20131101901,PETARWAR,UPG RAJKIYAKRIT M S KOH,UPG RAJKIYAKRIT M S KOH,23.64634,85.799457,23.6463399996235,85.7994570001853,"https://www.google.com/maps?q=23.64634,85.799457&z=17&hl=en","https://www.google.com/maps?q=23.6463399996235,85.7994570001853&z=17&hl=en",https://stackschools.com/schools/20131101901/,
ok,0.000,20130601301,NAWADIH,RAJKIYAKRIT GOVT. SECONDARY SCHOOL MUNGORANGAMATI,UPG RAJKIYAKRIT M S MUNGORANGAMATI,23.938392,85.913183,23.9383919995982,85.9131830000959,"https://www.google.com/maps?q=23.938392,85.913183&z=17&hl=en","https://www.google.com/maps?q=23.9383919995982,85.9131830000959&z=17&hl=en",https://stackschools.com/schools/20130601301/,
ok,0.000,20130602105,NAWADIH,SSA NPS PURVI TOLA KHARPITO,SSA NPS PURVI TOLA KHARPITO,23.875291,86.031447,23.8752909998982,86.0314469995643,"https://www.google.com/maps?q=23.875291,86.031447&z=17&hl=en","https://www.google.com/maps?q=23.8752909998982,86.0314469995643&z=17&hl=en",https://stackschools.com/schools/20130602105/,
ok,0.000,20131200804,KASMAR,UPG P S BARWADIH,UPG P S BARWADIH,23.565438,85.921958,23.5654380003726,85.921957999811,"https://www.google.com/maps?q=23.565438,85.921958&z=17&hl=en","https://www.google.com/maps?q=23.5654380003726,85.921957999811&z=17&hl=en",https://stackschools.com/schools/20131200804/,
ok,0.000,20130110105,CHANDANKIYARI,RAJKIYAKRIT M S KHEDADIH,RAJKIYAKRIT M S KHEDADIH,23.454965,86.300513,23.4549650002228,86.3005130003747,"https://www.google.com/maps?q=23.454965,86.300513&z=17&hl=en","https://www.google.com/maps?q=23.4549650002228,86.3005130003747&z=17&hl=en",https://stackschools.com/schools/20130110105/,
ok,0.000,20130604403,NAWADIH,SSA NPS PARSATAND,SSA NPS PARSATAND,23.830807,86.033439,23.8308069996498,86.0334390002321,"https://www.google.com/maps?q=23.830807,86.033439&z=17&hl=en","https://www.google.com/maps?q=23.8308069996498,86.0334390002321&z=17&hl=en",https://stackschools.com/schools/20130604403/,
ok,0.000,20130328903,CHAS,UPG RAJKIYAKRIT M S ASANSOL,UPG RAJKIYAKRIT M S ASANSOL,23.614911,86.165813,23.6149109999089,86.1658129995649,"https://www.google.com/maps?q=23.614911,86.165813&z=17&hl=en","https://www.google.com/maps?q=23.6149109999089,86.1658129995649&z=17&hl=en",https://stackschools.com/schools/20130328903/,
ok,0.000,20130701003,JARIDIH,SSA NPS BHUTKATAND,SSA NPS BHUTKATAND,23.530875,86.012495,23.5308749997701,86.0124950003684,"https://www.google.com/maps?q=23.530875,86.012495&z=17&hl=en","https://www.google.com/maps?q=23.5308749997701,86.0124950003684&z=17&hl=en",https://stackschools.com/schools/20130701003/,
ok,0.000,20131103306,PETARWAR,UPG P S AMBAKOCHA,UPG P S AMBAKOCHA,23.741646,85.908033,23.7416460003968,85.9080329998945,"https://www.google.com/maps?q=23.741646,85.908033&z=17&hl=en","https://www.google.com/maps?q=23.7416460003968,85.9080329998945&z=17&hl=en",https://stackschools.com/schools/20131103306/,
ok,0.000,20130604602,NAWADIH,RAJKIYAKRIT P S DAHIYARI MAKTAB,RAJKIYAKRIT P S DAHIYARI MAKTAB,23.854644,86.124481,23.8546440001717,86.1244810004046,"https://www.google.com/maps?q=23.854644,86.124481&z=17&hl=en","https://www.google.com/maps?q=23.8546440001717,86.1244810004046&z=17&hl=en",https://stackschools.com/schools/20130604602/,
ok,0.000,20130600802,NAWADIH,UPG P S BEHRADIH,UPG P S BEHRADIH,23.871696,86.098495,23.8716960003059,86.0984950002946,"https://www.google.com/maps?q=23.871696,86.098495&z=17&hl=en","https://www.google.com/maps?q=23.8716960003059,86.0984950002946&z=17&hl=en",https://stackschools.com/schools/20130600802/,
ok,0.000,20131203601,KASMAR,RAJKIYAKRIT P S MOCHRO,RAJKIYAKRIT P S MOCHRO,23.627426,85.94849,23.6274260000441,85.9484900004423,"https://www.google.com/maps?q=23.627426,85.94849&z=17&hl=en","https://www.google.com/maps?q=23.6274260000441,85.9484900004423&z=17&hl=en",https://stackschools.com/schools/20131203601/,
ok,0.000,20130603801,NAWADIH,UPG RAJKIYAKRIT M S LEMBODIH,UPG RAJKIYAKRIT M S LEMBODIH,23.836574,86.051074,23.8365740004046,86.0510740000512,"https://www.google.com/maps?q=23.836574,86.051074&z=17&hl=en","https://www.google.com/maps?q=23.8365740004046,86.0510740000512&z=17&hl=en",https://stackschools.com/schools/20130603801/,
ok,0.000,20131200602,KASMAR,UPG P S KHUTAHARA MAHTOTOLA,UPG P S KHUTAHARA MAHTOTOLA,23.593159,85.860314,23.5931589996802,85.8603139997253,"https://www.google.com/maps?q=23.593159,85.860314&z=17&hl=en","https://www.google.com/maps?q=23.5931589996802,85.8603139997253&z=17&hl=en",https://stackschools.com/schools/20131200602/,
ok,0.000,20131205401,KASMAR,RAJKIYAKRIT P S SINGH PUR,RAJKIYAKRIT P S SINGH PUR,23.532259,85.92787,23.5322590000061,85.9278700004437,"https://www.google.com/maps?q=23.532259,85.92787&z=17&hl=en","https://www.google.com/maps?q=23.5322590000061,85.9278700004437&z=17&hl=en",https://stackschools.com/schools/20131205401/,
ok,0.000,20131203102,KASMAR,UPG P S KOYRIJARA,UPG P S KOYRIJARA,23.590856,85.869145,23.5908560001434,85.8691450004153,"https://www.google.com/maps?q=23.590856,85.869145&z=17&hl=en","https://www.google.com/maps?q=23.5908560001434,85.8691450004153&z=17&hl=en",https://stackschools.com/schools/20131203102/,
ok,0.000,20131302401,CHANDRAPURA,RAJKIYAKRIT GOVT. SECONDARY SCHOOL BANDIYO,RAJKIYAKRIT M S BANDIYO,23.812257,86.064294,23.8122570002647,86.0642940003361,"https://www.google.com/maps?q=23.812257,86.064294&z=17&hl=en","https://www.google.com/maps?q=23.8122570002647,86.0642940003361&z=17&hl=en",https://stackschools.com/schools/20131302401/,
ok,0.000,20130605202,NAWADIH,UPG P S BRAHILTAND,UPG P S BRAHILTAND,23.791381,86.051559,23.7913810001069,86.0515589995748,"https://www.google.com/maps?q=23.791381,86.051559&z=17&hl=en","https://www.google.com/maps?q=23.7913810001069,86.0515589995748&z=17&hl=en",https://stackschools.com/schools/20130605202/,
ok,0.000,20130603601,NAWADIH,UPG RAJKIYAKRIT M S DHAMNI,UPG RAJKIYAKRIT M S DHAMNI,23.838797,86.12227,23.8387969997569,86.122270000352,"https://www.google.com/maps?q=23.838797,86.12227&z=17&hl=en","https://www.google.com/maps?q=23.8387969997569,86.122270000352&z=17&hl=en",https://stackschools.com/schools/20130603601/,
ok,0.000,20130606409,NAWADIH,SSA NPS BUDHIBAGI,SSA NPS BUDHIBAGI,23.88387,85.897466,23.8838699998984,85.8974660004264,"https://www.google.com/maps?q=23.88387,85.897466&z=17&hl=en","https://www.google.com/maps?q=23.8838699998984,85.8974660004264&z=17&hl=en",https://stackschools.com/schools/20130606409/,
ok,0.000,20130300101,CHAS,RAJKIYAKRIT M S GHATIYALI,RAJKIYAKRIT M S GHATIYALI,23.585172,86.126153,23.5851719998207,86.1261529996086,"https://www.google.com/maps?q=23.585172,86.126153&z=17&hl=en","https://www.google.com/maps?q=23.5851719998207,86.1261529996086&z=17&hl=en",https://stackschools.com/schools/20130300101/,
ok,0.000,20130606607,NAWADIH,UPG P S BHARAMTAND,UPG P S BHARAMTAND,23.90281,85.943703,23.9028100000564,85.9437029995658,"https://www.google.com/maps?q=23.90281,85.943703&z=17&hl=en","https://www.google.com/maps?q=23.9028100000564,85.9437029995658&z=17&hl=en",https://stackschools.com/schools/20130606607/,
ok,0.000,20130104101,CHANDANKIYARI,UPG RAJKIYAKRIT M S BOGULA,UPG RAJKIYAKRIT M S BOGULA,23.607619,86.36633,23.607619000378,86.3663300001453,"https://www.google.com/maps?q=23.607619,86.36633&z=17&hl=en","https://www.google.com/maps?q=23.607619000378,86.3663300001453&z=17&hl=en",https://stackschools.com/schools/20130104101/,
ok,0.000,20131204101,KASMAR,RAJKIYAKRIT P S CHAINPUR (D-2018),RAJKIYAKRIT P S CHAINPUR (D-2018),23.581155,85.876179,23.5811550000654,85.8761790004311,"https://www.google.com/maps?q=23.581155,85.876179&z=17&hl=en","https://www.google.com/maps?q=23.5811550000654,85.8761790004311&z=17&hl=en",https://stackschools.com/schools/20131204101/,
ok,0.000,20131102205,PETARWAR,UPG P S AMTAND,UPG P S AMTAND,23.664131,85.826992,23.664131000207,85.826992000374,"https://www.google.com/maps?q=23.664131,85.826992&z=17&hl=en","https://www.google.com/maps?q=23.664131000207,85.826992000374&z=17&hl=en",https://stackschools.com/schools/20131102205/,
ok,0.000,20130603304,NAWADIH,UPG P S BELA,UPG P S BELA,23.809992,86.019111,23.8099920003899,86.0191109999095,"https://www.google.com/maps?q=23.809992,86.019111&z=17&hl=en","https://www.google.com/maps?q=23.8099920003899,86.0191109999095&z=17&hl=en",https://stackschools.com/schools/20130603304/,
ok,0.000,20131303201,CHANDRAPURA,RAJKIYAKRIT GOVT. SECONDARY SCHOOL JUNOURI,RAJKIYAKRIT M S JUNOURI,23.783362,86.116421,23.7833620002136,86.1164210003668,"https://www.google.com/maps?q=23.783362,86.116421&z=17&hl=en","https://www.google.com/maps?q=23.7833620002136,86.1164210003668&z=17&hl=en",https://stackschools.com/schools/20131303201/,
ok,0.000,20131107601,PETARWAR,UPG P S ARARI,UPG P S ARARI,23.596919,85.842666,23.5969189998177,85.8426660003857,"https://www.google.com/maps?q=23.596919,85.842666&z=17&hl=en","https://www.google.com/maps?q=23.5969189998177,85.8426660003857&z=17&hl=en",https://stackschools.com/schools/20131107601/,
ok,0.000,20130315602,CHAS,UPG RAJKIYAKRIT M S BASTEJI,UPG RAJKIYAKRIT M S BASTEJI,23.685699,86.136899,23.6856990003912,86.1368990000751,"https://www.google.com/maps?q=23.685699,86.136899&z=17&hl=en","https://www.google.com/maps?q=23.6856990003912,86.1368990000751&z=17&hl=en",https://stackschools.com/schools/20130315602/,
ok,0.000,20131301301,CHANDRAPURA,RAJKIYAKRIT M S KARMATAND,RAJKIYAKRIT M S KARMATAND,23.762939,86.161753,23.7629389996251,86.161752999858,"https://www.google.com/maps?q=23.762939,86.161753&z=17&hl=en","https://www.google.com/maps?q=23.7629389996251,86.161752999858&z=17&hl=en",https://stackschools.com/schools/20131301301/,
ok,0.000,20130105402,CHANDANKIYARI,UPG RAJKIYAKRIT M S GAHIRA,UPG RAJKIYAKRIT M S GAHIRA,23.632817,86.381382,23.6328169997886,86.3813820003661,"https://www.google.com/maps?q=23.632817,86.381382&z=17&hl=en","https://www.google.com/maps?q=23.6328169997886,86.3813820003661&z=17&hl=en",https://stackschools.com/schools/20130105402/,
ok,0.000,20130601001,NAWADIH,UPG RAJKIYAKRIT M S BHAWANI,UPG RAJKIYAKRIT M S BHAWANI,23.902083,86.005746,23.9020830003748,86.0057459998597,"https://www.google.com/maps?q=23.902083,86.005746&z=17&hl=en","https://www.google.com/maps?q=23.9020830003748,86.0057459998597&z=17&hl=en",https://stackschools.com/schools/20130601001/,
ok,0.000,20131300101,CHANDRAPURA,UPG RAJKIYAKRIT M S BANDHDIH,UPG RAJKIYAKRIT M S BANDHDIH,23.763959,86.143859,23.7639590000621,86.1438589995728,"https://www.google.com/maps?q=23.763959,86.143859&z=17&hl=en","https://www.google.com/maps?q=23.7639590000621,86.1438589995728&z=17&hl=en",https://stackschools.com/schools/20131300101/,
ok,0.000,20130316301,CHAS,UPG RAJKIYAKRIT M S BHATUA,UPG RAJKIYAKRIT M S  BHATUA,23.693247,86.122305,23.6932469998221,86.1223049996138,"https://www.google.com/maps?q=23.693247,86.122305&z=17&hl=en","https://www.google.com/maps?q=23.6932469998221,86.1223049996138&z=17&hl=en",https://stackschools.com/schools/20130316301/,
ok,0.000,20131300615,CHANDRAPURA,UPG P S JHAGRAHIBAD,UPG P S JHAGRAHIBAD,23.73615,86.164703,23.7361500003795,86.1647029998774,"https://www.google.com/maps?q=23.73615,86.164703&z=17&hl=en","https://www.google.com/maps?q=23.7361500003795,86.1647029998774&z=17&hl=en",https://stackschools.com/schools/20131300615/,
ok,0.000,20131200806,KASMAR,UPG P S PAGARTAND,UPG P S PAGARTAND,23.576354,85.908183,23.5763540002674,85.9081829996824,"https://www.google.com/maps?q=23.576354,85.908183&z=17&hl=en","https://www.google.com/maps?q=23.5763540002674,85.9081829996824&z=17&hl=en",https://stackschools.com/schools/20131200806/,
ok,0.000,20131103214,PETARWAR,KGBV PETARWAR,KGBV PETARWAR,23.61732,85.845771,23.6173199996581,85.8457710002159,"https://www.google.com/maps?q=23.61732,85.845771&z=17&hl=en","https://www.google.com/maps?q=23.6173199996581,85.8457710002159&z=17&hl=en",https://stackschools.com/schools/20131103214/,
ok,0.000,20131201402,KASMAR,UPG P S DOMTOLA (KHAIRACHATAR),UPG P S DOMTOLA (KHAIRACHATAR),23.542213,85.929667,23.5422130003398,85.9296670002195,"https://www.google.com/maps?q=23.542213,85.929667&z=17&hl=en","https://www.google.com/maps?q=23.5422130003398,85.9296670002195&z=17&hl=en",https://stackschools.com/schools/20131201402/,
ok,0.000,20131302301,CHANDRAPURA,UPG RAJKIYAKRIT M S TURIYO,UPG RAJKIYAKRIT M S TURIYO,23.755997,86.043169,23.7559969996415,86.0431689998241,"https://www.google.com/maps?q=23.755997,86.043169&z=17&hl=en","https://www.google.com/maps?q=23.7559969996415,86.0431689998241&z=17&hl=en",https://stackschools.com/schools/20131302301/,
ok,0.000,20131301603,CHANDRAPURA,UPG P S PIPRADIH,UPG P S PIPRADIH,23.769137,86.086673,23.7691369999342,86.0866729995773,"https://www.google.com/maps?q=23.769137,86.086673&z=17&hl=en","https://www.google.com/maps?q=23.7691369999342,86.0866729995773&z=17&hl=en",https://stackschools.com/schools/20131301603/,
ok,0.000,20131105701,PETARWAR,UPG RAJKIYAKRIT M S DAHUWA,UPG RAJKIYAKRIT M S DAHUWA,23.685742,85.964708,23.6857419999756,85.9647080004271,"https://www.google.com/maps?q=23.685742,85.964708&z=17&hl=en","https://www.google.com/maps?q=23.6857419999756,85.9647080004271&z=17&hl=en",https://stackschools.com/schools/20131105701/,
ok,0.000,20130326901,CHAS,RAJKIYAKRIT M S JAMGORIA,RAJKIYAKRIT M S JAMGORIA,23.645548,86.202904,23.6455480003603,86.2029040001667,"https://www.google.com/maps?q=23.645548,86.202904&z=17&hl=en","https://www.google.com/maps?q=23.6455480003603,86.2029040001667&z=17&hl=en",https://stackschools.com/schools/20130326901/,
ok,0.000,20130601802,NAWADIH,UPG P S BUTWARIA,UPG P S BUTWARIA,23.849669,85.878985,23.849668999839,85.8789849996121,"https://www.google.com/maps?q=23.849669,85.878985&z=17&hl=en","https://www.google.com/maps?q=23.849668999839,85.8789849996121&z=17&hl=en",https://stackschools.com/schools/20130601802/,
ok,0.000,20130605310,NAWADIH,SSA NPS GORIARITAND,SSA NPS GORIARITAND,23.843967,86.037055,23.8439670000402,86.0370550004233,"https://www.google.com/maps?q=23.843967,86.037055&z=17&hl=en","https://www.google.com/maps?q=23.8439670000402,86.0370550004233&z=17&hl=en",https://stackschools.com/schools/20130605310/,
ok,0.000,20130603301,NAWADIH,UPG RAJKIYAKRIT M S CHAPRI,UPG RAJKIYAKRIT M S CHAPRI,23.801883,86.01545,23.8018830001014,86.0154500004107,"https://www.google.com/maps?q=23.801883,86.01545&z=17&hl=en","https://www.google.com/maps?q=23.8018830001014,86.0154500004107&z=17&hl=en",https://stackschools.com/schools/20130603301/,
ok,0.000,20131205608,KASMAR,UPG P S PURABTAND,UPG P S PURABTAND,23.619114,85.909402,23.6191140003864,85.9094020000482,"https://www.google.com/maps?q=23.619114,85.909402&z=17&hl=en","https://www.google.com/maps?q=23.6191140003864,85.9094020000482&z=17&hl=en",https://stackschools.com/schools/20131205608/,
ok,0.000,20131105001,PETARWAR,UPG RAJKIYAKRIT M S GABHARMOCHRO,UPG RAJKIYAKRIT M S GABHARMOCHRO,23.66308,85.775872,23.6630800003768,85.7758720000987,"https://www.google.com/maps?q=23.66308,85.775872&z=17&hl=en","https://www.google.com/maps?q=23.6630800003768,85.7758720000987&z=17&hl=en",https://stackschools.com/schools/20131105001/,
ok,0.000,20131303101,CHANDRAPURA,UPG P S GATIGARHA,UPG P S GATIGARHA,23.784947,86.095318,23.7849470001153,86.0953179995961,"https://www.google.com/maps?q=23.784947,86.095318&z=17&hl=en","https://www.google.com/maps?q=23.7849470001153,86.0953179995961&z=17&hl=en",https://stackschools.com/schools/20131303101/,
ok,0.000,20130320301,CHAS,RAJKIYAKRIT M S RAILWAY,RAJKIYAKRIT M S RAILWAY,23.661008,86.081024,23.6610080001428,86.0810239996087,"https://www.google.com/maps?q=23.661008,86.081024&z=17&hl=en","https://www.google.com/maps?q=23.6610080001428,86.0810239996087&z=17&hl=en",https://stackschools.com/schools/20130320301/,
ok,0.000,20130602702,NAWADIH,UPG P S BIDWA,UPG P S BIDWA,23.840527,86.021367,23.8405270003532,86.0213670001679,"https://www.google.com/maps?q=23.840527,86.021367&z=17&hl=en","https://www.google.com/maps?q=23.8405270003532,86.0213670001679&z=17&hl=en",https://stackschools.com/schools/20130602702/,
ok,0.000,20130310301,CHAS,UPG RAJKIYAKRIT M S CHANDAHA (URDU),UPG RAJKIYAKRIT M S CHANDAHA (URDU),23.661235,86.313557,23.6612350003821,86.3135570000342,"https://www.google.com/maps?q=23.661235,86.313557&z=17&hl=en","https://www.google.com/maps?q=23.6612350003821,86.3135570000342&z=17&hl=en",https://stackschools.com/schools/20130310301/,
ok,0.000,20131301903,CHANDRAPURA,UPG P S SWEEPERCOLONY,UPG P S SWEEPERCOLONY,23.748028,86.105631,23.7480279999888,86.1056310004176,"https://www.google.com/maps?q=23.748028,86.105631&z=17&hl=en","https://www.google.com/maps?q=23.7480279999888,86.1056310004176&z=17&hl=en",https://stackschools.com/schools/20131301903/,
ok,0.000,20130701301,JARIDIH,RAJKIYAKRIT P S CHILGADA,RAJKIYAKRIT P S CHILGADA,23.564635,86.007107,23.5646349998481,86.0071069996174,"https://www.google.com/maps?q=23.564635,86.007107&z=17&hl=en","https://www.google.com/maps?q=23.5646349998481,86.0071069996174&z=17&hl=en",https://stackschools.com/schools/20130701301/,
ok,0.000,20131300201,CHANDRAPURA,UPG RAJKIYAKRIT M S BARWADIH,UPG RAJKIYAKRIT M S  BARWADIH,23.753811,86.115211,23.7538110003231,86.1152110002218,"https://www.google.com/maps?q=23.753811,86.115211&z=17&hl=en","https://www.google.com/maps?q=23.7538110003231,86.1152110002218&z=17&hl=en",https://stackschools.com/schools/20131300201/,
ok,0.000,20130310701,CHAS,RAJKIYAKRIT M S TURIDIH,RAJKIYAKRIT M S TURIDIH,23.549647,86.232381,23.549646999632,86.2323809998962,"https://www.google.com/maps?q=23.549647,86.232381&z=17&hl=en","https://www.google.com/maps?q=23.549646999632,86.2323809998962&z=17&hl=en",https://stackschools.com/schools/20130310701/,
ok,0.000,20130606609,NAWADIH,SSA NPS BHEDKHUTWA,SSA NPS BHEDKHUTWA,23.900326,85.929148,23.9003260001858,85.9291480003607,"https://www.google.com/maps?q=23.900326,85.929148&z=17&hl=en","https://www.google.com/maps?q=23.9003260001858,85.9291480003607&z=17&hl=en",https://stackschools.com/schools/20130606609/,
ok,0.000,20130601306,NAWADIH,SSA NPS DAHIYA,SSA NPS DAHIYA,23.933179,85.882761,23.9331789998181,85.8827609996369,"https://www.google.com/maps?q=23.933179,85.882761&z=17&hl=en","https://www.google.com/maps?q=23.9331789998181,85.8827609996369&z=17&hl=en",https://stackschools.com/schools/20130601306/,
ok,0.000,20131302901,CHANDRAPURA,UPG RAJKIYAKRIT M S KHALCHO,UPG RAJKIYAKRIT M S KHALCHO,23.812015,86.099416,23.8120149996532,86.0994159998362,"https://www.google.com/maps?q=23.812015,86.099416&z=17&hl=en","https://www.google.com/maps?q=23.8120149996532,86.0994159998362&z=17&hl=en",https://stackschools.com/schools/20131302901/,
ok,0.000,20130308302,CHAS,UPG RAJKIYAKRIT M S DUMARADA HINDI,UPG RAJKIYAKRIT M S DUMARADA HINDI,23.699962,86.274704,23.6999620003362,86.2747039998167,"https://www.google.com/maps?q=23.699962,86.274704&z=17&hl=en","https://www.google.com/maps?q=23.6999620003362,86.2747039998167&z=17&hl=en",https://stackschools.com/schools/20130308302/,
ok,0.000,20130608501,NAWADIH,UPG P S AMJHAR,UPG P S AMJHAR,23.843114,86.018604,23.8431140002945,86.0186039997463,"https://www.google.com/maps?q=23.843114,86.018604&z=17&hl=en","https://www.google.com/maps?q=23.8431140002945,86.0186039997463&z=17&hl=en",https://stackschools.com/schools/20130608501/,
ok,0.000,20130104901,CHANDANKIYARI,UPG RAJKIYAKRIT M S GOURIGRAM,UPG RAJKIYAKRIT M S GOURIGRAM,23.651757,86.42324,23.6517570003721,86.4232399999562,"https://www.google.com/maps?q=23.651757,86.42324&z=17&hl=en","https://www.google.com/maps?q=23.6517570003721,86.4232399999562&z=17&hl=en",https://stackschools.com/schools/20130104901/,
ok,0.000,20130601602,NAWADIH,RAJKIYAKRIT P S DHADHAKIBERA,RAJKIYAKRIT P S DHADHAKIBERA,23.812659,86.004373,23.8126590000389,86.0043730004064,"https://www.google.com/maps?q=23.812659,86.004373&z=17&hl=en","https://www.google.com/maps?q=23.8126590000389,86.0043730004064&z=17&hl=en",https://stackschools.com/schools/20130601602/,
ok,0.000,20131201005,KASMAR,UPG P S MUSLIMTOLA,UPG P S MUSLIMTOLA,23.525142,85.920149,23.5251419997934,85.9201490003396,"https://www.google.com/maps?q=23.525142,85.920149&z=17&hl=en","https://www.google.com/maps?q=23.5251419997934,85.9201490003396&z=17&hl=en",https://stackschools.com/schools/20131201005/,
ok,0.000,20130607602,NAWADIH,SSA NPS TETARIA TAND,SSA NPS TETARIA TAND,23.94703,85.896794,23.9470299999631,85.8967940004068,"https://www.google.com/maps?q=23.94703,85.896794&z=17&hl=en","https://www.google.com/maps?q=23.9470299999631,85.8967940004068&z=17&hl=en",https://stackschools.com/schools/20130607602/,
ok,0.000,20130609906,NAWADIH,UPG P S BARMASIA,UPG P S BARMASIA,23.820474,86.055411,23.8204740003067,86.0554109997676,"https://www.google.com/maps?q=23.820474,86.055411&z=17&hl=en","https://www.google.com/maps?q=23.8204740003067,86.0554109997676&z=17&hl=en",https://stackschools.com/schools/20130609906/,
ok,0.000,20130701402,JARIDIH,RAJKIYAKRIT P S GOPINATHPUR,RAJKIYAKRIT P S GOPINATHPUR,23.62717,86.025542,23.6271699999396,86.0255420004009,"https://www.google.com/maps?q=23.62717,86.025542&z=17&hl=en","https://www.google.com/maps?q=23.6271699999396,86.0255420004009&z=17&hl=en",https://stackschools.com/schools/20130701402/,
ok,0.000,20131202904,KASMAR,UPG P S KAMARTOLA (SURJUDIH),UPG P S KAMARTOLA (SURJUDIH),23.61457,85.916522,23.6145700002677,85.9165220002777,"https://www.google.com/maps?q=23.61457,85.916522&z=17&hl=en","https://www.google.com/maps?q=23.6145700002677,85.9165220002777&z=17&hl=en",https://stackschools.com/schools/20131202904/,
ok,0.000,20130601204,NAWADIH,SSA NPS SINDWAR TOLA,SSA NPS SINDWAR TOLA,23.907009,86.066023,23.9070089998005,86.0660230003398,"https://www.google.com/maps?q=23.907009,86.066023&z=17&hl=en","https://www.google.com/maps?q=23.9070089998005,86.0660230003398&z=17&hl=en",https://stackschools.com/schools/20130601204/,
ok,0.000,20131206103,KASMAR,UPG P S DAMRUGORA,UPG P S DAMRUGORA,23.544766,85.902826,23.5447660003147,85.9028259997918,"https://www.google.com/maps?q=23.544766,85.902826&z=17&hl=en","https://www.google.com/maps?q=23.5447660003147,85.9028259997918&z=17&hl=en",https://stackschools.com/schools/20131206103/,
ok,0.000,20131103001,PETARWAR,UPG RAJKIYAKRIT M S DARID,UPG RAJKIYAKRIT M S DARID,23.646234,85.88065,23.6462339996343,85.8806500000418,"https://www.google.com/maps?q=23.646234,85.88065&z=17&hl=en","https://www.google.com/maps?q=23.6462339996343,85.8806500000418&z=17&hl=en",https://stackschools.com/schools/20131103001/,
ok,0.000,20131303202,CHANDRAPURA,UPG P S JUNOURITAND,UPG P S JUNOURITAND,23.787495,86.117606,23.7874949999456,86.1176060003974,"https://www.google.com/maps?q=23.787495,86.117606&z=17&hl=en","https://www.google.com/maps?q=23.7874949999456,86.1176060003974&z=17&hl=en",https://stackschools.com/schools/20131303202/,
ok,0.000,20131101602,PETARWAR,RAJKIYAKRIT PS CHALKARI,RAJKIYAKRIT PS CHALKARI,23.748755,85.946381,23.7487549999988,85.9463809995986,"https://www.google.com/maps?q=23.748755,85.946381&z=17&hl=en","https://www.google.com/maps?q=23.7487549999988,85.9463809995986&z=17&hl=en",https://stackschools.com/schools/20131101602/,
ok,0.000,20131204902,KASMAR,UPG P S HARSALI,UPG P S HARSALI,23.592834,85.932476,23.5928339996973,85.9324759997736,"https://www.google.com/maps?q=23.592834,85.932476&z=17&hl=en","https://www.google.com/maps?q=23.5928339996973,85.9324759997736&z=17&hl=en",https://stackschools.com/schools/20131204902/,
ok,0.000,20130317601,CHAS,RAJKIYAKRIT M S B.M.P-4,RAJKIYAKRIT M S  B.M.P-4,23.637007,86.132885,23.6370070000202,86.1328850003989,"https://www.google.com/maps?q=23.637007,86.132885&z=17&hl=en","https://www.google.com/maps?q=23.6370070000202,86.1328850003989&z=17&hl=en",https://stackschools.com/schools/20130317601/,
ok,0.000,20130602201,NAWADIH,UPG RAJKIYAKRIT M S BANSHI,UPG RAJKIYAKRIT M S BANSHI,23.874918,85.96753,23.8749179999989,85.9675300004,"https://www.google.com/maps?q=23.874918,85.96753&z=17&hl=en","https://www.google.com/maps?q=23.8749179999989,85.9675300004&z=17&hl=en",https://stackschools.com/schools/20130602201/,
ok,0.000,20131202604,KASMAR,UPG P S MAHTOTOLA ORMO,UPG P S MAHTOTOLA ORMO,23.609187,85.898373,23.6091870002646,85.8983729997244,"https://www.google.com/maps?q=23.609187,85.898373&z=17&hl=en","https://www.google.com/maps?q=23.6091870002646,85.8983729997244&z=17&hl=en",https://stackschools.com/schools/20131202604/,
ok,0.000,20130600801,NAWADIH,UPG RAJKIYAKRIT M S BARADIH,UPG RAJKIYAKRIT M S BARADIH,23.86398,86.103804,23.8639800000636,86.1038039996063,"https://www.google.com/maps?q=23.86398,86.103804&z=17&hl=en","https://www.google.com/maps?q=23.8639800000636,86.1038039996063&z=17&hl=en",https://stackschools.com/schools/20130600801/,
ok,0.000,20131301401,CHANDRAPURA,RAJKIYAKRIT P S KURUMBA,RAJKIYAKRIT P S KURUMBA,23.763615,86.14108,23.7636149996636,86.1410800001559,"https://www.google.com/maps?q=23.763615,86.14108&z=17&hl=en","https://www.google.com/maps?q=23.7636149996636,86.1410800001559&z=17&hl=en",https://stackschools.com/schools/20131301401/,
ok,0.000,20131106001,PETARWAR,UPG RAJKIYAKRIT M S BARA KENDUWA,UPG RAJKIYAKRIT M S BARA KENDUWA,23.697181,85.995585,23.6971809997331,85.9955850002724,"https://www.google.com/maps?q=23.697181,85.995585&z=17&hl=en","https://www.google.com/maps?q=23.6971809997331,85.9955850002724&z=17&hl=en",https://stackschools.com/schools/20131106001/,
ok,0.000,20131300609,CHANDRAPURA,UPG P S BADKITAND,UPG P S BADKITAND,23.746535,86.153893,23.7465350003332,86.1538929998367,"https://www.google.com/maps?q=23.746535,86.153893&z=17&hl=en","https://www.google.com/maps?q=23.7465350003332,86.1538929998367&z=17&hl=en",https://stackschools.com/schools/20131300609/,
ok,0.000,20130319601,CHAS,RAJKIYAKRIT M S GORABALI,RAJKIYAKRIT M S GORABALI,23.666919,86.048603,23.6669190002482,86.0486029997076,"https://www.google.com/maps?q=23.666919,86.048603&z=17&hl=en","https://www.google.com/maps?q=23.6669190002482,86.0486029997076&z=17&hl=en",https://stackschools.com/schools/20130319601/,
ok,0.000,20131205607,KASMAR,UPG P S KOCHAGORA,UPG P S KOCHAGORA,23.631311,85.922596,23.6313110000556,85.9225960003938,"https://www.google.com/maps?q=23.631311,85.922596&z=17&hl=en","https://www.google.com/maps?q=23.6313110000556,85.9225960003938&z=17&hl=en",https://stackschools.com/schools/20131205607/,
ok,0.000,20131302803,CHANDRAPURA,RAJKIYAKRIT P S MAKTAB TELO,RAJKIYAKRIT P S MAKTAB TELO,23.809799,86.129857,23.8097989998049,86.1298569996634,"https://www.google.com/maps?q=23.809799,86.129857&z=17&hl=en","https://www.google.com/maps?q=23.8097989998049,86.1298569996634&z=17&hl=en",https://stackschools.com/schools/20131302803/,
ok,0.000,20130311101,CHAS,RAJKIYAKRIT M S HARIDIH,RAJKIYAKRIT M S HARIDIH,23.580197,86.244355,23.5801970003615,86.244355000051,"https://www.google.com/maps?q=23.580197,86.244355&z=17&hl=en","https://www.google.com/maps?q=23.5801970003615,86.244355000051&z=17&hl=en",https://stackschools.com/schools/20130311101/,
ok,0.000,20130602802,NAWADIH,UPG P S ANDHUA,UPG P S ANDHUA,23.855674,85.920321,23.8556740003424,85.9203209998688,"https://www.google.com/maps?q=23.855674,85.920321&z=17&hl=en","https://www.google.com/maps?q=23.8556740003424,85.9203209998688&z=17&hl=en",https://stackschools.com/schools/20130602802/,
ok,0.000,20131105401,PETARWAR,UPG RAJKIYAKRIT M S MERU DARU,UPG RAJKIYAKRIT M S MERU DARU,23.674239,85.767295,23.6742389996636,85.767294999852,"https://www.google.com/maps?q=23.674239,85.767295&z=17&hl=en","https://www.google.com/maps?q=23.6742389996636,85.767294999852&z=17&hl=en",https://stackschools.com/schools/20131105401/,
ok,0.000,20130100101,CHANDANKIYARI,UPG RAJKIYAKRIT M S DEYULTAND,UPG RAJKIYAKRIT M S DEYULTAND,23.546483,86.291601,23.5464830000472,86.2916010003922,"https://www.google.com/maps?q=23.546483,86.291601&z=17&hl=en","https://www.google.com/maps?q=23.5464830000472,86.2916010003922&z=17&hl=en",https://stackschools.com/schools/20130100101/,
ok,0.000,20131301901,CHANDRAPURA,RAJKIYAKRIT M S CHANDRAPURA SOUTH,RAJKIYAKRIT M S CHANDRAPURA SOUTH,23.747311,86.102428,23.7473110003006,86.1024279997799,"https://www.google.com/maps?q=23.747311,86.102428&z=17&hl=en","https://www.google.com/maps?q=23.7473110003006,86.1024279997799&z=17&hl=en",https://stackschools.com/schools/20131301901/,
ok,0.000,20130109901,CHANDANKIYARI,UPG RAJKIYAKRIT M S BODMA,UPG RAJKIYAKRIT M S BODMA,23.527481,86.347228,23.5274810002695,86.3472280002633,"https://www.google.com/maps?q=23.527481,86.347228&z=17&hl=en","https://www.google.com/maps?q=23.5274810002695,86.3472280002633&z=17&hl=en",https://stackschools.com/schools/20130109901/,
ok,0.000,20130601901,NAWADIH,UPG RAJKIYAKRIT M S CHOTKIKURI,UPG RAJKIYAKRIT M S CHOTKIKURI,23.821897,85.93091,23.8218969996395,85.9309099999765,"https://www.google.com/maps?q=23.821897,85.93091&z=17&hl=en","https://www.google.com/maps?q=23.8218969996395,85.9309099999765&z=17&hl=en",https://stackschools.com/schools/20130601901/,
ok,0.000,20130600701,NAWADIH,RAJKIYAKRIT P S TARATAND,RAJKIYAKRIT P S TARATAND,23.851623,86.028004,23.8516229998862,86.0280039996254,"https://www.google.com/maps?q=23.851623,86.028004&z=17&hl=en","https://www.google.com/maps?q=23.8516229998862,86.0280039996254&z=17&hl=en",https://stackschools.com/schools/20130600701/,
ok,0.000,20130703501,JARIDIH,RAJKIYAKRIT P S SUNDRO,RAJKIYAKRIT P S SUNDRO,23.543507,85.996273,23.5435069996821,85.9962730001856,"https://www.google.com/maps?q=23.543507,85.996273&z=17&hl=en","https://www.google.com/maps?q=23.5435069996821,85.9962730001856&z=17&hl=en",https://stackschools.com/schools/20130703501/,
ok,0.000,20131200803,KASMAR,UPG P S MUSLIMTOLA MANJURA,UPG P S MUSLIMTOLA MANJURA,23.585085,85.928717,23.5850850001331,85.9287170003655,"https://www.google.com/maps?q=23.585085,85.928717&z=17&hl=en","https://www.google.com/maps?q=23.5850850001331,85.9287170003655&z=17&hl=en",https://stackschools.com/schools/20131200803/,
ok,0.000,20130606001,NAWADIH,UPG RAJKIYAKRIT M S BARAI,UPG RAJKIYAKRIT M S BARAI,23.861523,85.976009,23.8615230003265,85.9760089998392,"https://www.google.com/maps?q=23.861523,85.976009&z=17&hl=en","https://www.google.com/maps?q=23.8615230003265,85.9760089998392&z=17&hl=en",https://stackschools.com/schools/20130606001/,
ok,0.000,20130328604,CHAS,RAJKIYAKRIT M S CHAS,RAJKIYAKRIT M S CHAS,23.636258,86.164928,23.6362579996422,86.1649280000083,"https://www.google.com/maps?q=23.636258,86.164928&z=17&hl=en","https://www.google.com/maps?q=23.6362579996422,86.1649280000083&z=17&hl=en",https://stackschools.com/schools/20130328604/,
ok,0.000,20131201704,KASMAR,UPG P S KATHALTOLA,UPG P S KATHALTOLA,23.520124,85.88371,23.5201239998169,85.883709999666,"https://www.google.com/maps?q=23.520124,85.88371&z=17&hl=en","https://www.google.com/maps?q=23.5201239998169,85.883709999666&z=17&hl=en",https://stackschools.com/schools/20131201704/,
ok,0.000,20131102901,PETARWAR,UPG RAJKIYAKRIT M S CHHAPARGARHA,UPG RAJKIYAKRIT M S CHHAPARGARHA,23.691653,85.959269,23.6916530000878,85.9592689996225,"https://www.google.com/maps?q=23.691653,85.959269&z=17&hl=en","https://www.google.com/maps?q=23.6916530000878,85.9592689996225&z=17&hl=en",https://stackschools.com/schools/20131102901/,
ok,0.000,20130606102,NAWADIH,SSA NPS GHATWARTOLA,SSA NPS GHATWARTOLA,23.810738,85.971369,23.8107379996812,85.9713690001741,"https://www.google.com/maps?q=23.810738,85.971369&z=17&hl=en","https://www.google.com/maps?q=23.8107379996812,85.9713690001741&z=17&hl=en",https://stackschools.com/schools/20130606102/,
ok,0.000,20131300704,CHANDRAPURA,UPG P S DAHI LATBEDHI,UPG P S DAHI LATBEDHI,23.770555,86.111936,23.7705550000376,86.1119359996141,"https://www.google.com/maps?q=23.770555,86.111936&z=17&hl=en","https://www.google.com/maps?q=23.7705550000376,86.1119359996141&z=17&hl=en",https://stackschools.com/schools/20131300704/,
ok,0.000,20131102401,PETARWAR,RAJKIYAKRIT P S JHUNJHKO,RAJKIYAKRIT P S JHUNJHKO,23.726481,85.943791,23.7264809998106,85.9437910003276,"https://www.google.com/maps?q=23.726481,85.943791&z=17&hl=en","https://www.google.com/maps?q=23.7264809998106,85.9437910003276&z=17&hl=en",https://stackschools.com/schools/20131102401/,
ok,0.000,20130701804,JARIDIH,RAJKIYAKRIT P S BALUDIH,RAJKIYAKRIT P S BALUDIH,23.644938,85.967859,23.644937999763,85.967859000288,"https://www.google.com/maps?q=23.644938,85.967859&z=17&hl=en","https://www.google.com/maps?q=23.644937999763,85.967859000288&z=17&hl=en",https://stackschools.com/schools/20130701804/,
ok,0.000,20130308801,CHAS,UPG RAJKIYAKRIT M S DUMARJOR,UPG RAJKIYAKRIT M S DUMARJOR,23.66591,86.202885,23.6659099996574,86.2028849999001,"https://www.google.com/maps?q=23.66591,86.202885&z=17&hl=en","https://www.google.com/maps?q=23.6659099996574,86.2028849999001&z=17&hl=en",https://stackschools.com/schools/20130308801/,
ok,0.000,20130107501,CHANDANKIYARI,RAJKIYAKRIT M S KALIKAPUR,RAJKIYAKRIT M S KALIKAPUR,23.464988,86.257514,23.4649879997196,86.2575140002366,"https://www.google.com/maps?q=23.464988,86.257514&z=17&hl=en","https://www.google.com/maps?q=23.4649879997196,86.2575140002366&z=17&hl=en",https://stackschools.com/schools/20130107501/,
ok,0.000,20130101406,CHANDANKIYARI,UPG RAJKIYAKRIT M S CHAMRABAD,UPG RAJKIYAKRIT M S CHAMRABAD,23.588128,86.31249,23.5881279996461,86.3124900000043,"https://www.google.com/maps?q=23.588128,86.31249&z=17&hl=en","https://www.google.com/maps?q=23.5881279996461,86.3124900000043&z=17&hl=en",https://stackschools.com/schools/20130101406/,
ok,0.000,20130307431,CHAS,RAJKIYAKRIT M S SECTOR-2,RAJKIYAKRIT M S SECTOR-2,23.652875,86.136386,23.6528749996511,86.1363860000641,"https://www.google.com/maps?q=23.652875,86.136386&z=17&hl=en","https://www.google.com/maps?q=23.6528749996511,86.1363860000641&z=17&hl=en",https://stackschools.com/schools/20130307431/,
ok,0.000,20131103901,PETARWAR,UPG RAJKIYAKRIT M S BARSONGHA,UPG RAJKIYAKRIT M S BARSONGHA,23.65183,85.866307,23.6518300001492,85.8663069996505,"https://www.google.com/maps?q=23.65183,85.866307&z=17&hl=en","https://www.google.com/maps?q=23.6518300001492,85.8663069996505&z=17&hl=en",https://stackschools.com/schools/20131103901/,
ok,0.000,20131201506,KASMAR,UPG P S GHANSITOLA (DANTOO),UPG P S GHANSITOLA (DANTOO),23.648479,85.905912,23.6484789997361,85.9059120002536,"https://www.google.com/maps?q=23.648479,85.905912&z=17&hl=en","https://www.google.com/maps?q=23.6484789997361,85.9059120002536&z=17&hl=en",https://stackschools.com/schools/20131201506/,
ok,0.000,20130310702,CHAS,UPG RAJKIYAKRIT M S CHAPATAND,UPG RAJKIYAKRIT M S CHAPATAND,23.552783,86.229747,23.552782999729,86.2297470002443,"https://www.google.com/maps?q=23.552783,86.229747&z=17&hl=en","https://www.google.com/maps?q=23.552782999729,86.2297470002443&z=17&hl=en",https://stackschools.com/schools/20130310702/,
ok,0.000,20130318601,CHAS,UPG RAJKIYAKRIT M S BISUNPUR,UPG RAJKIYAKRIT M S BISUNPUR,23.675304,86.048113,23.6753040003171,86.0481130001611,"https://www.google.com/maps?q=23.675304,86.048113&z=17&hl=en","https://www.google.com/maps?q=23.6753040003171,86.0481130001611&z=17&hl=en",https://stackschools.com/schools/20130318601/,
ok,0.000,20130601201,NAWADIH,UPG RAJKIYAKRIT M S AHARDIH,UPG RAJKIYAKRIT M S AHARDIH,23.902454,86.056044,23.9024540001786,86.0560440003275,"https://www.google.com/maps?q=23.902454,86.056044&z=17&hl=en","https://www.google.com/maps?q=23.9024540001786,86.0560440003275&z=17&hl=en",https://stackschools.com/schools/20130601201/,
ok,0.000,20130601401,NAWADIH,UPG RAJKIYAKRIT M S PARASBANI,UPG RAJKIYAKRIT M S PARASBANI,23.841258,86.107505,23.8412579996969,86.1075050001863,"https://www.google.com/maps?q=23.841258,86.107505&z=17&hl=en","https://www.google.com/maps?q=23.8412579996969,86.1075050001863&z=17&hl=en",https://stackschools.com/schools/20130601401/,
ok,0.000,20130606006,NAWADIH,SSA NPS MAHBICHHWA,SSA NPS MAHBICHHWA,23.85315,85.971289,23.8531499997003,85.9712889998081,"https://www.google.com/maps?q=23.85315,85.971289&z=17&hl=en","https://www.google.com/maps?q=23.8531499997003,85.9712889998081&z=17&hl=en",https://stackschools.com/schools/20130606006/,
ok,0.000,20130609904,NAWADIH,PM SHRI UPG RAJKIYAKRIT HIGH SCHOOL BIRNI,UPG RAJKIYAKRIT HIGH SCHOOL BIRNI,23.811694,86.06375,23.8116940000955,86.0637500003629,"https://www.google.com/maps?q=23.811694,86.06375&z=17&hl=en","https://www.google.com/maps?q=23.8116940000955,86.0637500003629&z=17&hl=en",https://stackschools.com/schools/20130609904/,
ok,0.000,20131302804,CHANDRAPURA,UPG P S MIRCHAITAND,UPG P S MIRCHAITAND,23.815648,86.113646,23.8156479997413,86.1136460002495,"https://www.google.com/maps?q=23.815648,86.113646&z=17&hl=en","https://www.google.com/maps?q=23.8156479997413,86.1136460002495&z=17&hl=en",https://stackschools.com/schools/20131302804/,
ok,0.000,20130606410,NAWADIH,SSA NPS MIYANTOLA,SSA NPS MIYANTOLA,23.890739,85.889297,23.8907389997807,85.8892969997104,"https://www.google.com/maps?q=23.890739,85.889297&z=17&hl=en","https://www.google.com/maps?q=23.8907389997807,85.8892969997104&z=17&hl=en",https://stackschools.com/schools/20130606410/,
ok,0.000,20130606004,NAWADIH,UPG P S BANKATWA,UPG P S BANKATWA,23.854931,85.977166,23.8549310002278,85.9771660002807,"https://www.google.com/maps?q=23.854931,85.977166&z=17&hl=en","https://www.google.com/maps?q=23.8549310002278,85.9771660002807&z=17&hl=en",https://stackschools.com/schools/20130606004/,
ok,0.000,20130103101,CHANDANKIYARI,RAJKIYAKRIT M S BATBINOR,RAJKIYAKRIT M S BATBINOR,23.675685,86.309028,23.6756849997106,86.3090279997989,"https://www.google.com/maps?q=23.675685,86.309028&z=17&hl=en","https://www.google.com/maps?q=23.6756849997106,86.3090279997989&z=17&hl=en",https://stackschools.com/schools/20130103101/,
ok,0.000,20131300901,CHANDRAPURA,RAJKIYAKRIT P S HARDHOWA,RAJKIYAKRIT P S HARDHOWA,23.78263,86.142069,23.7826299999373,86.142069000368,"https://www.google.com/maps?q=23.78263,86.142069&z=17&hl=en","https://www.google.com/maps?q=23.7826299999373,86.142069000368&z=17&hl=en",https://stackschools.com/schools/20131300901/,
ok,0.000,20131303301,CHANDRAPURA,UPG RAJKIYAKRIT M S PAPLO,UPG RAJKIYAKRIT M S PAPLO,23.800901,86.115554,23.8009010001072,86.1155540003535,"https://www.google.com/maps?q=23.800901,86.115554&z=17&hl=en","https://www.google.com/maps?q=23.8009010001072,86.1155540003535&z=17&hl=en",https://stackschools.com/schools/20131303301/,
ok,0.000,20130604704,NAWADIH,SSA NPS BORATAND,SSA NPS BORATAND,23.868261,85.923143,23.8682610003081,85.9231429998416,"https://www.google.com/maps?q=23.868261,85.923143&z=17&hl=en","https://www.google.com/maps?q=23.8682610003081,85.9231429998416&z=17&hl=en",https://stackschools.com/schools/20130604704/,
ok,0.000,20131206809,KASMAR,UPG P S HARIJANTOLA TANGTONA,UPG P S HARIJANTOLA TANGTONA,23.548276,85.948527,23.5482760002496,85.9485270002522,"https://www.google.com/maps?q=23.548276,85.948527&z=17&hl=en","https://www.google.com/maps?q=23.5482760002496,85.9485270002522&z=17&hl=en",https://stackschools.com/schools/20131206809/,
ok,0.000,20130308701,CHAS,UPG RAJKIYAKRIT M S BELUNJA,UPG RAJKIYAKRIT M S BELUNJA,23.686369,86.274941,23.6863690000941,86.2749409996432,"https://www.google.com/maps?q=23.686369,86.274941&z=17&hl=en","https://www.google.com/maps?q=23.6863690000941,86.2749409996432&z=17&hl=en",https://stackschools.com/schools/20130308701/,
ok,0.000,20130316701,CHAS,UPG RAJKIYAKRIT M S BARUDIH,UPG RAJKIYAKRIT M S BARUDIH,23.596746,86.064254,23.5967459996907,86.0642540001531,"https://www.google.com/maps?q=23.596746,86.064254&z=17&hl=en","https://www.google.com/maps?q=23.5967459996907,86.0642540001531&z=17&hl=en",https://stackschools.com/schools/20130316701/,
ok,0.000,20131303405,CHANDRAPURA,UPG P S LAXMIPUR,UPG P S LAXMIPUR,23.782092,86.124834,23.7820920001769,86.1248339996837,"https://www.google.com/maps?q=23.782092,86.124834&z=17&hl=en","https://www.google.com/maps?q=23.7820920001769,86.1248339996837&z=17&hl=en",https://stackschools.com/schools/20131303405/,
ok,0.000,20131303401,CHANDRAPURA,UPG RAJKIYAKRIT M S TARANARI,UPG RAJKIYAKRIT M S TARANARI,23.78794,86.129148,23.7879400003027,86.1291479998338,"https://www.google.com/maps?q=23.78794,86.129148&z=17&hl=en","https://www.google.com/maps?q=23.7879400003027,86.1291479998338&z=17&hl=en",https://stackschools.com/schools/20131303401/,
ok,0.000,20131201602,KASMAR,RAJKIYAKRIT P S AJAIYATOLA,RAJKIYAKRIT P S AJAIYATOLA,23.547711,85.928717,23.5477109999576,85.9287170003655,"https://www.google.com/maps?q=23.547711,85.928717&z=17&hl=en","https://www.google.com/maps?q=23.5477109999576,85.9287170003655&z=17&hl=en",https://stackschools.com/schools/20131201602/,
ok,0.000,20131301302,CHANDRAPURA,UPG P S NAIPAHARI,UPG P S NAIPAHARI,23.797655,86.140031,23.7976549998524,86.1400309996694,"https://www.google.com/maps?q=23.797655,86.140031&z=17&hl=en","https://www.google.com/maps?q=23.7976549998524,86.1400309996694&z=17&hl=en",https://stackschools.com/schools/20131301302/,
ok,0.000,20131200701,KASMAR,RAJKIYAKRIT P S KASMAR 1,RAJKIYAKRIT P S KASMAR 1,23.599336,85.93772,23.5993359998253,85.9377199996863,"https://www.google.com/maps?q=23.599336,85.93772&z=17&hl=en","https://www.google.com/maps?q=23.5993359998253,85.9377199996863&z=17&hl=en",https://stackschools.com/schools/20131200701/,
ok,0.000,20131303502,CHANDRAPURA,UPG P S REHWA,UPG P S REHWA,23.789664,86.149061,23.7896640001081,86.1490609996527,"https://www.google.com/maps?q=23.789664,86.149061&z=17&hl=en","https://www.google.com/maps?q=23.7896640001081,86.1490609996527&z=17&hl=en",https://stackschools.com/schools/20131303502/,
ok,0.000,20130604001,NAWADIH,UPG RAJKIYAKRIT M S MANJHLITAND,UPG RAJKIYAKRIT M S MANJHLITAND,23.825726,86.051489,23.8257259996949,86.0514890001529,"https://www.google.com/maps?q=23.825726,86.051489&z=17&hl=en","https://www.google.com/maps?q=23.8257259996949,86.0514890001529&z=17&hl=en",https://stackschools.com/schools/20130604001/,
ok,0.000,20131100601,PETARWAR,UPG RAJKIYAKRIT +2 HIGH SCHOOL CHANDO,UPG RAJKIYAKRIT +2 HIGH SCHOOL CHANDO,23.687646,85.938386,23.6876460003073,85.9383859998582,"https://www.google.com/maps?q=23.687646,85.938386&z=17&hl=en","https://www.google.com/maps?q=23.6876460003073,85.9383859998582&z=17&hl=en",https://stackschools.com/schools/20131100601/,
ok,0.000,20130109701,CHANDANKIYARI,UPG RAJKIYAKRIT M S CHANDIPUR,UPG RAJKIYAKRIT M S CHANDIPUR,23.547131,86.345815,23.5471310002221,86.3458149997287,"https://www.google.com/maps?q=23.547131,86.345815&z=17&hl=en","https://www.google.com/maps?q=23.5471310002221,86.3458149997287&z=17&hl=en",https://stackschools.com/schools/20130109701/,
ok,0.000,20131303501,CHANDRAPURA,UPG RAJKIYAKRIT HIGH SCHOOL TARANGA,UPG RAJKIYAKRIT HIGH SCHOOL TARANGA,23.801535,86.147089,23.8015350003316,86.1470889999747,"https://www.google.com/maps?q=23.801535,86.147089&z=17&hl=en","https://www.google.com/maps?q=23.8015350003316,86.1470889999747&z=17&hl=en",https://stackschools.com/schools/20131303501/,
ok,0.000,20130310601,CHAS,RAJKIYAKRIT M S SILFOR,RAJKIYAKRIT M S SILFOR,23.573122,86.266193,23.5731220001752,86.2661929996922,"https://www.google.com/maps?q=23.573122,86.266193&z=17&hl=en","https://www.google.com/maps?q=23.5731220001752,86.2661929996922&z=17&hl=en",https://stackschools.com/schools/20130310601/,
ok,0.000,20131302202,CHANDRAPURA,UPG RAJKIYAKRIT M S TARAMBIGRAM,UPG RAJKIYAKRIT M S TARAMBIGRAM,23.777258,86.062254,23.7772580003313,86.0622539999877,"https://www.google.com/maps?q=23.777258,86.062254&z=17&hl=en","https://www.google.com/maps?q=23.7772580003313,86.0622539999877&z=17&hl=en",https://stackschools.com/schools/20131302202/,
ok,0.000,20131300607,CHANDRAPURA,UPG P S MAILAGARHA,UPG P S MAILAGARHA,23.747233,86.136038,23.74723300032,86.1360379999096,"https://www.google.com/maps?q=23.747233,86.136038&z=17&hl=en","https://www.google.com/maps?q=23.74723300032,86.1360379999096&z=17&hl=en",https://stackschools.com/schools/20131300607/,
ok,0.000,20130317901,CHAS,UPG RAJKIYAKRIT M S AZADNAGAR,UPG RAJKIYAKRIT M S  AZADNAGAR,23.660664,86.110369,23.6606639996708,86.110368999992,"https://www.google.com/maps?q=23.660664,86.110369&z=17&hl=en","https://www.google.com/maps?q=23.6606639996708,86.110368999992&z=17&hl=en",https://stackschools.com/schools/20130317901/,
ok,0.000,20131303105,CHANDRAPURA,UPG P S TURITOLA,UPG P S TURITOLA,23.786542,86.102861,23.7865420001407,86.1028610003233,"https://www.google.com/maps?q=23.786542,86.102861&z=17&hl=en","https://www.google.com/maps?q=23.7865420001407,86.1028610003233&z=17&hl=en",https://stackschools.com/schools/20131303105/,
ok,0.000,20131301408,CHANDRAPURA,SSA NPS AMRATAND,SSA NPS AMRATAND,23.771429,86.139655,23.7714290003192,86.1396549999258,"https://www.google.com/maps?q=23.771429,86.139655&z=17&hl=en","https://www.google.com/maps?q=23.7714290003192,86.1396549999258&z=17&hl=en",https://stackschools.com/schools/20131301408/,
ok,0.000,20131100801,PETARWAR,UPG RAJKIYAKRIT M S KARANDIH,UPG RAJKIYAKRIT M S KARANDIH,23.73368,85.955658,23.7336799999562,85.9556580003524,"https://www.google.com/maps?q=23.73368,85.955658&z=17&hl=en","https://www.google.com/maps?q=23.7336799999562,85.9556580003524&z=17&hl=en",https://stackschools.com/schools/20131100801/,
ok,0.000,20131303002,CHANDRAPURA,UPG P S SIMRAKULHI,UPG P S SIMRAKULHI,23.7736,86.07048,23.7735999998163,86.0704799997068,"https://www.google.com/maps?q=23.7736,86.07048&z=17&hl=en","https://www.google.com/maps?q=23.7735999998163,86.0704799997068&z=17&hl=en",https://stackschools.com/schools/20131303002/,
ok,0.000,20130102501,CHANDANKIYARI,UPG RAJKIYAKRIT M S DEVGRAM,UPG RAJKIYAKRIT M S DEVGRAM,23.667868,86.351676,23.6678680001609,86.3516760003077,"https://www.google.com/maps?q=23.667868,86.351676&z=17&hl=en","https://www.google.com/maps?q=23.6678680001609,86.3516760003077&z=17&hl=en",https://stackschools.com/schools/20130102501/,
ok,0.000,20131300602,CHANDRAPURA,UPG RAJKIYAKRIT M S DUGDA COALWASHRI,UPG RAJKIYAKRIT M S DUGDA COALWASHRI,23.748755,86.16807,23.7487549999988,86.1680699996483,"https://www.google.com/maps?q=23.748755,86.16807&z=17&hl=en","https://www.google.com/maps?q=23.7487549999988,86.1680699996483&z=17&hl=en",https://stackschools.com/schools/20131300602/,
ok,0.000,20131104901,PETARWAR,RAJKIYAKRIT P S GARRI,RAJKIYAKRIT P S GARRI,23.707233,85.934482,23.7072330002559,85.9344819997868,"https://www.google.com/maps?q=23.707233,85.934482&z=17&hl=en","https://www.google.com/maps?q=23.7072330002559,85.9344819997868&z=17&hl=en",https://stackschools.com/schools/20131104901/,
ok,0.000,20131206001,KASMAR,RAJKIYAKRIT P S KHUDIBERA,RAJKIYAKRIT P S KHUDIBERA,23.521314,85.920857,23.5213140000611,85.9208570003443,"https://www.google.com/maps?q=23.521314,85.920857&z=17&hl=en","https://www.google.com/maps?q=23.5213140000611,85.9208570003443&z=17&hl=en",https://stackschools.com/schools/20131206001/,
ok,0.000,20130603404,NAWADIH,SSA NPS BANDHTAND,SSA NPS BANDHTAND,23.902524,86.015099,23.9025239996968,86.0150989998831,"https://www.google.com/maps?q=23.902524,86.015099&z=17&hl=en","https://www.google.com/maps?q=23.9025239996968,86.0150989998831&z=17&hl=en",https://stackschools.com/schools/20130603404/,
ok,0.000,20131106302,PETARWAR,SSA NPS HAZARITAND,SSA NPS HAZARITAND,23.687332,85.86362,23.6873319998266,85.8636200002952,"https://www.google.com/maps?q=23.687332,85.86362&z=17&hl=en","https://www.google.com/maps?q=23.6873319998266,85.8636200002952&z=17&hl=en",https://stackschools.com/schools/20131106302/,
ok,0.000,20131300401,CHANDRAPURA,RAJKIYAKRIT P S PIPRADIH STATION,RAJKIYAKRIT P S PIPRADIH STATION,23.775697,86.086838,23.7756970001038,86.0868380003321,"https://www.google.com/maps?q=23.775697,86.086838&z=17&hl=en","https://www.google.com/maps?q=23.7756970001038,86.0868380003321&z=17&hl=en",https://stackschools.com/schools/20131300401/,
ok,0.000,20130606608,NAWADIH,UPG P S DHAWAYA,UPG P S DHAWAYA,23.893148,85.94297,23.8931479999406,85.9429700003451,"https://www.google.com/maps?q=23.893148,85.94297&z=17&hl=en","https://www.google.com/maps?q=23.8931479999406,85.9429700003451&z=17&hl=en",https://stackschools.com/schools/20130606608/,
ok,0.000,20131205501,KASMAR,RAJKIYAKRIT P S BAGIYARI (URDU),RAJKIYAKRIT P S BAGIYARI (URDU),23.560741,85.939697,23.5607409998146,85.9396970002855,"https://www.google.com/maps?q=23.560741,85.939697&z=17&hl=en","https://www.google.com/maps?q=23.5607409998146,85.9396970002855&z=17&hl=en",https://stackschools.com/schools/20131205501/,
ok,0.000,20130602304,NAWADIH,UPG M S MANGARDAHA,UPG M S MANGARDAHA,23.85293,86.053056,23.8529300002458,86.0530559997749,"https://www.google.com/maps?q=23.85293,86.053056&z=17&hl=en","https://www.google.com/maps?q=23.8529300002458,86.0530559997749&z=17&hl=en",https://stackschools.com/schools/20130602304/,
ok,0.000,20130101602,CHANDANKIYARI,RAJKIYAKRIT M S CHANDANKIYARI (GIRLS),RAJKIYAKRIT M S CHANDANKIYARI (GIRLS),23.569156,86.363976,23.569155999681,86.3639759999776,"https://www.google.com/maps?q=23.569156,86.363976&z=17&hl=en","https://www.google.com/maps?q=23.569155999681,86.3639759999776&z=17&hl=en",https://stackschools.com/schools/20130101602/,
ok,0.000,20131300610,CHANDRAPURA,UPG P S BERABASTI,UPG P S BERABASTI,23.733276,86.160341,23.7332760003133,86.1603410000466,"https://www.google.com/maps?q=23.733276,86.160341&z=17&hl=en","https://www.google.com/maps?q=23.7332760003133,86.1603410000466&z=17&hl=en",https://stackschools.com/schools/20131300610/,
ok,0.000,20130305802,CHAS,UPG RAJKIYAKRIT M S BHANGABAZAR CHAS-1,UPG RAJKIYAKRIT M S BHANGABAZAR CHAS-1,23.577979,86.165522,23.5779790002505,86.1655220002101,"https://www.google.com/maps?q=23.577979,86.165522&z=17&hl=en","https://www.google.com/maps?q=23.5779790002505,86.1655220002101&z=17&hl=en",https://stackschools.com/schools/20130305802/,
ok,0.000,20130604003,NAWADIH,RAJKIYAKRIT P S BARWADIH-2,RAJKIYAKRIT P S BARWADIH-2,23.824164,86.036264,23.8241639998819,86.0362639996797,"https://www.google.com/maps?q=23.824164,86.036264&z=17&hl=en","https://www.google.com/maps?q=23.8241639998819,86.0362639996797&z=17&hl=en",https://stackschools.com/schools/20130604003/,
ok,0.000,20130600703,NAWADIH,SSA NPS HURSODIH,SSA NPS HURSODIH,23.851539,86.022269,23.8515389999554,86.0222690003413,"https://www.google.com/maps?q=23.851539,86.022269&z=17&hl=en","https://www.google.com/maps?q=23.8515389999554,86.0222690003413&z=17&hl=en",https://stackschools.com/schools/20130600703/,
ok,0.000,20131200802,KASMAR,UPG P S PURNAPANI,UPG P S PURNAPANI,23.586148,85.948027,23.5861480002269,85.9480269997617,"https://www.google.com/maps?q=23.586148,85.948027&z=17&hl=en","https://www.google.com/maps?q=23.5861480002269,85.9480269997617&z=17&hl=en",https://stackschools.com/schools/20131200802/,
ok,0.000,20131300703,CHANDRAPURA,UPG P S BHURSABAD,UPG P S BHURSABAD,23.765863,86.115633,23.7658630003137,86.1156329999962,"https://www.google.com/maps?q=23.765863,86.115633&z=17&hl=en","https://www.google.com/maps?q=23.7658630003137,86.1156329999962&z=17&hl=en",https://stackschools.com/schools/20131300703/,
ok,0.000,20130602801,NAWADIH,RAJKIYAKRIT GOVT. SECONDARY SCHOOL PIPRADIH,UPG RAJKIYAKRIT M S PIPRADIH,23.848635,85.91901,23.848634999973,85.9190100003397,"https://www.google.com/maps?q=23.848635,85.91901&z=17&hl=en","https://www.google.com/maps?q=23.848634999973,85.9190100003397&z=17&hl=en",https://stackschools.com/schools/20130602801/,
ok,0.000,20131105901,PETARWAR,UPG RAJKIYAKRIT M S TAKAHA,UPG RAJKIYAKRIT M S TAKAHA,23.631667,85.868466,23.6316670002661,85.8684659998246,"https://www.google.com/maps?q=23.631667,85.868466&z=17&hl=en","https://www.google.com/maps?q=23.6316670002661,85.8684659998246&z=17&hl=en",https://stackschools.com/schools/20131105901/,
ok,0.000,20130314901,CHAS,RAJKIYAKRIT M S PUPUNAKI,RAJKIYAKRIT M S PUPUNAKI,23.702946,86.203932,23.7029460002717,86.2039319998385,"https://www.google.com/maps?q=23.702946,86.203932&z=17&hl=en","https://www.google.com/maps?q=23.7029460002717,86.2039319998385&z=17&hl=en",https://stackschools.com/schools/20130314901/,
ok,0.000,20130101702,CHANDANKIYARI,UPG RAJKIYAKRIT M S BARKAMA,UPG RAJKIYAKRIT M S BARKAMA,23.588809,86.34313,23.5888090003076,86.3431300000231,"https://www.google.com/maps?q=23.588809,86.34313&z=17&hl=en","https://www.google.com/maps?q=23.5888090003076,86.3431300000231&z=17&hl=en",https://stackschools.com/schools/20130101702/,
ok,0.000,20131105302,PETARWAR,UPG RAJKIYAKRIT M S PRAKHAND COLONY,UPG RAJKIYAKRIT M S PRAKHAND COLONY,23.640427,85.857604,23.6404269997045,85.8576039999054,"https://www.google.com/maps?q=23.640427,85.857604&z=17&hl=en","https://www.google.com/maps?q=23.6404269997045,85.8576039999054&z=17&hl=en",https://stackschools.com/schools/20131105302/,
ok,0.000,20131303102,CHANDRAPURA,UPG RAJKIYAKRIT M S NARRA,UPG RAJKIYAKRIT M S NARRA,23.780093,86.103805,23.7800929999395,86.1038050003295,"https://www.google.com/maps?q=23.780093,86.103805&z=17&hl=en","https://www.google.com/maps?q=23.7800929999395,86.1038050003295&z=17&hl=en",https://stackschools.com/schools/20131303102/,
ok,0.000,20131205102,KASMAR,UPG P S MADAITOLA (TRIYONALA),UPG P S MADAITOLA (TRIYONALA),23.502143,85.938402,23.5021429997952,85.9384019997517,"https://www.google.com/maps?q=23.502143,85.938402&z=17&hl=en","https://www.google.com/maps?q=23.5021429997952,85.9384019997517&z=17&hl=en",https://stackschools.com/schools/20131205102/,
ok,0.000,20130309501,CHAS,UPG RAJKIYAKRIT M S BELUT,UPG RAJKIYAKRIT M S  BELUT,23.685408,86.260917,23.6854079996939,86.2609169999925,"https://www.google.com/maps?q=23.685408,86.260917&z=17&hl=en","https://www.google.com/maps?q=23.6854079996939,86.2609169999925&z=17&hl=en",https://stackschools.com/schools/20130309501/,
ok,0.000,20130606501,NAWADIH,RAJKIYAKRIT P S KATGHARA,RAJKIYAKRIT P S KATGHARA,23.83688,86.043864,23.8368800001188,86.0438640003083,"https://www.google.com/maps?q=23.83688,86.043864&z=17&hl=en","https://www.google.com/maps?q=23.8368800001188,86.0438640003083&z=17&hl=en",https://stackschools.com/schools/20130606501/,
ok,0.000,20130702301,JARIDIH,RAJKIYAKRIT P S ARALDIH,RAJKIYAKRIT P S ARALDIH,23.620645,86.009258,23.6206449998574,86.0092580002938,"https://www.google.com/maps?q=23.620645,86.009258&z=17&hl=en","https://www.google.com/maps?q=23.6206449998574,86.0092580002938&z=17&hl=en",https://stackschools.com/schools/20130702301/,
ok,0.000,20131301701,CHANDRAPURA,UPG RAJKIYAKRIT M S RAJABEDA,UPG RAJKIYAKRIT M S RAJABEDA,23.743158,86.086038,23.7431579998175,86.0860380002659,"https://www.google.com/maps?q=23.743158,86.086038&z=17&hl=en","https://www.google.com/maps?q=23.7431579998175,86.0860380002659&z=17&hl=en",https://stackschools.com/schools/20131301701/,
ok,0.000,20130312701,CHAS,RAJKIYAKRIT M S KHAMARBENDI,RAJKIYAKRIT M S KHAMARBENDI,23.591492,86.24781,23.5914920000972,86.2478099996855,"https://www.google.com/maps?q=23.591492,86.24781&z=17&hl=en","https://www.google.com/maps?q=23.5914920000972,86.2478099996855&z=17&hl=en",https://stackschools.com/schools/20130312701/,
ok,0.000,20130602601,NAWADIH,UPG RAJKIYAKRIT M S PILPILO,UPG RAJKIYAKRIT M S PILPILO,23.817391,85.907165,23.8173910002992,85.9071650000563,"https://www.google.com/maps?q=23.817391,85.907165&z=17&hl=en","https://www.google.com/maps?q=23.8173910002992,85.9071650000563&z=17&hl=en",https://stackschools.com/schools/20130602601/,
ok,0.000,20131207304,KASMAR,UPG P S BHANDARDIH,UPG P S BHANDARDIH,23.512098,85.936131,23.5120980000637,85.9361310003229,"https://www.google.com/maps?q=23.512098,85.936131&z=17&hl=en","https://www.google.com/maps?q=23.5120980000637,85.9361310003229&z=17&hl=en",https://stackschools.com/schools/20131207304/,
ok,0.000,20131105301,PETARWAR,UPG RAJKIYAKRIT M S SADMA KALA,UPG RAJKIYAKRIT M S SADMA KALA,23.630514,85.861188,23.6305139998948,85.8611880003096,"https://www.google.com/maps?q=23.630514,85.861188&z=17&hl=en","https://www.google.com/maps?q=23.6305139998948,85.8611880003096&z=17&hl=en",https://stackschools.com/schools/20131105301/,
ok,0.000,20130112701,CHANDANKIYARI,UPG RAJKIYAKRIT M S BANSTORA,UPG RAJKIYAKRIT M S BANSTORA,23.530292,86.331596,23.5302920002903,86.3315960000843,"https://www.google.com/maps?q=23.530292,86.331596&z=17&hl=en","https://www.google.com/maps?q=23.5302920002903,86.3315960000843&z=17&hl=en",https://stackschools.com/schools/20130112701/,
ok,0.000,20131102702,PETARWAR,UPG RAJKIYAKRIT M S JARUWATAND MAKTAB,UPG RAJKIYAKRIT M S JARUWATAND MAKTAB,23.62113,85.85801,23.6211300002275,85.8580099997863,"https://www.google.com/maps?q=23.62113,85.85801&z=17&hl=en","https://www.google.com/maps?q=23.6211300002275,85.8580099997863&z=17&hl=en",https://stackschools.com/schools/20131102702/,
ok,0.000,20130303001,CHAS,UPG RAJKIYAKRIT M S GOPALPUR CHAS-1,UPG RAJKIYAKRIT M S GOPALPUR CHAS-1,23.501729,86.170714,23.5017289998004,86.1707140002443,"https://www.google.com/maps?q=23.501729,86.170714&z=17&hl=en","https://www.google.com/maps?q=23.5017289998004,86.1707140002443&z=17&hl=en",https://stackschools.com/schools/20130303001/,
ok,0.000,20130606701,NAWADIH,UPG RAJKIYAKRIT M S KOTHI,UPG RAJKIYAKRIT M S KOTHI,23.915678,85.915994,23.9156779997624,85.9159940001981,"https://www.google.com/maps?q=23.915678,85.915994&z=17&hl=en","https://www.google.com/maps?q=23.9156779997624,85.9159940001981&z=17&hl=en",https://stackschools.com/schools/20130606701/,
ok,0.000,20131302801,CHANDRAPURA,UPG RAJKIYAKRIT M S TELO (KANYA),UPG RAJKIYAKRIT M S TELO (KANYA),23.816504,86.119754,23.8165039997649,86.1197539998025,"https://www.google.com/maps?q=23.816504,86.119754&z=17&hl=en","https://www.google.com/maps?q=23.8165039997649,86.1197539998025&z=17&hl=en",https://stackschools.com/schools/20131302801/,
ok,0.000,20130605401,NAWADIH,RAJKIYAKRIT P S NAWADIH KALA,RAJKIYAKRIT P S NAWADIH KALA,23.921657,85.920434,23.9216570002595,85.9204339998466,"https://www.google.com/maps?q=23.921657,85.920434&z=17&hl=en","https://www.google.com/maps?q=23.9216570002595,85.9204339998466&z=17&hl=en",https://stackschools.com/schools/20130605401/,
ok,0.000,20131102101,PETARWAR,UPG RAJKIYAKRIT M S GOPALPUR,UPG RAJKIYAKRIT M S GOPALPUR,23.620648,85.872053,23.6206479998856,85.8720529997036,"https://www.google.com/maps?q=23.620648,85.872053&z=17&hl=en","https://www.google.com/maps?q=23.6206479998856,85.8720529997036&z=17&hl=en",https://stackschools.com/schools/20131102101/,
ok,0.000,20130700101,JARIDIH,RAJKIYAKRIT P S RORIYA,RAJKIYAKRIT P S RORIYA,23.4888,85.938127,23.4888000001253,85.9381270002904,"https://www.google.com/maps?q=23.4888,85.938127&z=17&hl=en","https://www.google.com/maps?q=23.4888000001253,85.9381270002904&z=17&hl=en",https://stackschools.com/schools/20130700101/,
ok,0.000,20131103402,PETARWAR,RAJKIYAKRIT M S PETARWAR (BALIKA),RAJKIYAKRIT M S PETARWAR (BALIKA),23.614431,85.849162,23.6144309998504,85.8491620002762,"https://www.google.com/maps?q=23.614431,85.849162&z=17&hl=en","https://www.google.com/maps?q=23.6144309998504,85.8491620002762&z=17&hl=en",https://stackschools.com/schools/20131103402/,
ok,0.000,20130605001,NAWADIH,UPG RAJKIYAKRIT M S GOBARGARA,UPG RAJKIYAKRIT M S GOBARGARA,23.835454,86.0604,23.8354539999437,86.0604000003104,"https://www.google.com/maps?q=23.835454,86.0604&z=17&hl=en","https://www.google.com/maps?q=23.8354539999437,86.0604000003104&z=17&hl=en",https://stackschools.com/schools/20130605001/,
ok,0.000,20130327603,CHAS,UPG RAJKIYAKRIT M S CHAS (URDU),UPG RAJKIYAKRIT M S CHAS (URDU),23.636729,86.175498,23.636728999746,86.1754979998494,"https://www.google.com/maps?q=23.636729,86.175498&z=17&hl=en","https://www.google.com/maps?q=23.636728999746,86.1754979998494&z=17&hl=en",https://stackschools.com/schools/20130327603/,
ok,0.000,20131201503,KASMAR,UPG P S ROHANIYATAND (DANTOO),UPG P S ROHANIYATAND (DANTOO),23.650204,85.899543,23.6502039999715,85.8995429996864,"https://www.google.com/maps?q=23.650204,85.899543&z=17&hl=en","https://www.google.com/maps?q=23.6502039999715,85.8995429996864&z=17&hl=en",https://stackschools.com/schools/20131201503/,
ok,0.000,20131302102,CHANDRAPURA,UPG P S HIRGHUTTU,UPG P S HIRGHUTTU,23.771486,86.172477,23.7714859999906,86.1724769996849,"https://www.google.com/maps?q=23.771486,86.172477&z=17&hl=en","https://www.google.com/maps?q=23.7714859999906,86.1724769996849&z=17&hl=en",https://stackschools.com/schools/20131302102/,
ok,0.000,20130604202,NAWADIH,UPG P S BHALGARTAND,UPG P S BHALGARTAND,23.869048,86.046101,23.8690479999152,86.0461010003001,"https://www.google.com/maps?q=23.869048,86.046101&z=17&hl=en","https://www.google.com/maps?q=23.8690479999152,86.0461010003001&z=17&hl=en",https://stackschools.com/schools/20130604202/,
ok,0.000,20131301702,CHANDRAPURA,UPG P S KARAMARA,UPG P S KARAMARA,23.747131,86.094797,23.747131000275,86.0947970000875,"https://www.google.com/maps?q=23.747131,86.094797&z=17&hl=en","https://www.google.com/maps?q=23.747131000275,86.0947970000875&z=17&hl=en",https://stackschools.com/schools/20131301702/,
ok,0.000,20131302104,CHANDRAPURA,RAJKIYAKRIT P S ALWIYAN KOLIYARI,RAJKIYAKRIT P S ALWIYAN KOLIYARI,23.771271,86.166995,23.7712710002629,86.1669950001208,"https://www.google.com/maps?q=23.771271,86.166995&z=17&hl=en","https://www.google.com/maps?q=23.7712710002629,86.1669950001208&z=17&hl=en",https://stackschools.com/schools/20131302104/,
ok,0.000,20130703006,JARIDIH,SSA NPS GADGAD KOCHA,SSA NPS GADGAD KOCHA,23.493023,85.977366,23.493022999917,85.9773660002972,"https://www.google.com/maps?q=23.493023,85.977366&z=17&hl=en","https://www.google.com/maps?q=23.493022999917,85.9773660002972&z=17&hl=en",https://stackschools.com/schools/20130703006/,
ok,0.000,20131205502,KASMAR,UPG P S HARIJANTOLA (BAGIYARI),UPG P S HARIJANTOLA (BAGIYARI),23.563791,85.941657,23.5637910001431,85.9416570002679,"https://www.google.com/maps?q=23.563791,85.941657&z=17&hl=en","https://www.google.com/maps?q=23.5637910001431,85.9416570002679&z=17&hl=en",https://stackschools.com/schools/20131205502/,
ok,0.000,20130314502,CHAS,RAJKIYAKRIT M S DHANDABAR,RAJKIYAKRIT M S DHANDABAR,23.662237,86.25534,23.662236999716,86.2553399999939,"https://www.google.com/maps?q=23.662237,86.25534&z=17&hl=en","https://www.google.com/maps?q=23.662236999716,86.2553399999939&z=17&hl=en",https://stackschools.com/schools/20130314502/,
ok,0.000,20131200302,KASMAR,UPG P S PAKRIBANDH,UPG P S PAKRIBANDH,23.565485,85.927055,23.5654850000042,85.9270550003089,"https://www.google.com/maps?q=23.565485,85.927055&z=17&hl=en","https://www.google.com/maps?q=23.5654850000042,85.9270550003089&z=17&hl=en",https://stackschools.com/schools/20131200302/,
ok,0.000,20131103405,PETARWAR,UPG RAJKIYKRIT M S KHATRI TOLA,UPG RAJKIYKRIT M S KHATRI TOLA,23.610739,85.8528,23.6107389997916,85.8528000002088,"https://www.google.com/maps?q=23.610739,85.8528&z=17&hl=en","https://www.google.com/maps?q=23.6107389997916,85.8528000002088&z=17&hl=en",https://stackschools.com/schools/20131103405/,
ok,0.000,20131302204,CHANDRAPURA,SSA NPS SARAIYATAND,SSA NPS SARAIYATAND,23.770579,86.067773,23.7705789998472,86.06777300026,"https://www.google.com/maps?q=23.770579,86.067773&z=17&hl=en","https://www.google.com/maps?q=23.7705789998472,86.06777300026&z=17&hl=en",https://stackschools.com/schools/20131302204/,
ok,0.000,20131303701,CHANDRAPURA,RAJKIYAKRIT P S BUDHIDIH,RAJKIYAKRIT P S BUDHIDIH,23.736447,86.142544,23.7364470002448,86.1425439998458,"https://www.google.com/maps?q=23.736447,86.142544&z=17&hl=en","https://www.google.com/maps?q=23.7364470002448,86.1425439998458&z=17&hl=en",https://stackschools.com/schools/20131303701/,
ok,0.000,20130104301,CHANDANKIYARI,UPG RAJKIYAKRIT M S GALGALTAND,UPG RAJKIYAKRIT M S GALGALTAND,23.5906,86.371524,23.5906000002341,86.3715239998293,"https://www.google.com/maps?q=23.5906,86.371524&z=17&hl=en","https://www.google.com/maps?q=23.5906000002341,86.3715239998293&z=17&hl=en",https://stackschools.com/schools/20130104301/,
ok,0.000,20130600203,NAWADIH,UPG P S BANDHTAND,UPG P S BANDHTAND,23.887047,86.082944,23.8870470000175,86.0829440003065,"https://www.google.com/maps?q=23.887047,86.082944&z=17&hl=en","https://www.google.com/maps?q=23.8870470000175,86.0829440003065&z=17&hl=en",https://stackschools.com/schools/20130600203/,
ok,0.000,20130605101,NAWADIH,RAJKIYAKRIT P S KOKLODIH,RAJKIYAKRIT P S KOKLODIH,23.878162,86.040115,23.8781620002773,86.0401150000476,"https://www.google.com/maps?q=23.878162,86.040115&z=17&hl=en","https://www.google.com/maps?q=23.8781620002773,86.0401150000476&z=17&hl=en",https://stackschools.com/schools/20130605101/,
ok,0.000,20130322101,CHAS,UPG RAJKIYAKRIT M S AGARDIH (URDU),UPG RAJKIYAKRIT M S AGARDIH (URDU),23.701565,86.127784,23.701565000066,86.1277839997031,"https://www.google.com/maps?q=23.701565,86.127784&z=17&hl=en","https://www.google.com/maps?q=23.701565000066,86.1277839997031&z=17&hl=en",https://stackschools.com/schools/20130322101/,
